Numero Ocorrencia,Data,,,Hora,Uf,,Br,Km,Latitude,Longitude,Natureza Enquadramento,,,Municipio,Envolvimento,Qtd Assalto a Caminhão,Qtde Envolvido,Qtde Veiculo
C0164937170111193700,11/1/2017,"Quarta-feira, 11 de Janeiro de 2017",2017-01-11,18,RJ,RIO DE JANEIRO,116 ,278,-22.513699,-44.210499,461,ROUBO A CAMINHÃO,ROUBO,BARRA MANSA,Vítima,1,1,1
C0164937170329042200,29/3/2017,"Quarta-feira, 29 de Março de 2017",2017-03-29,3,RJ,RIO DE JANEIRO,116 ,276,-22.526799,-44.197699,461,ROUBO A CAMINHÃO,ROUBO,BARRA MANSA,Vítima,1,2,1
C0164937170417221400,17/4/2017,"Segunda-feira, 17 de Abril de 2017",2017-04-17,20,RJ,RIO DE JANEIRO,116 ,224,-22.652599,-43.822699,461,ROUBO A CAMINHÃO,ROUBO,PIRAI,Vítima,1,1,1
C0167317170221064000,21/2/2017,"Terça-feira, 21 de Fevereiro de 2017",2017-02-21,6,AL,ALAGOAS,423 ,25,-9.191299,-37.507899,461,ROUBO A CAMINHÃO,ROUBO,CANAPI,Vítima,1,1,1
C1030251170131135400,31/1/2017,"Terça-feira, 31 de Janeiro de 2017",2017-01-31,11,MA,MARANHÃO,010 ,290,-5.195199,-47.520199,461,ROUBO A CAMINHÃO,ROUBO,SAO FRANCISCO DO BREJAO,Vítima,1,1,1
C1030251170503073600,3/5/2017,"Quarta-feira, 3 de Maio de 2017",2017-05-03,1,MA,MARANHÃO,010 ,146,-6.442499,-47.396999,461,ROUBO A CAMINHÃO,ROUBO,PORTO FRANCO,Vítima,1,1,3
C1068456170411054900,11/4/2017,"Terça-feira, 11 de Abril de 2017",2017-04-11,3,SP,SÃO PAULO,116 ,58,-22.780899,-45.146999,461,ROUBO A CAMINHÃO,ROUBO,GUARATINGUETA,Vítima,1,1,0
C1068730170115100500,15/1/2017,"Domingo, 15 de Janeiro de 2017",2017-01-15,10,NI,Não Informado,NI,-1,-1,-1,461,ROUBO A CAMINHÃO,ROUBO,CAMPOS DOS GOYTACAZES,Vítima,1,1,1
C1069314170418073700,18/4/2017,"Terça-feira, 18 de Abril de 2017",2017-04-18,6,PE,PERNAMBUCO,232 ,64,-8.162299,-35.441899,461,ROUBO A CAMINHÃO,ROUBO,POMBOS,Vítima,1,1,1
C1069327170104232000,4/1/2017,"Quarta-feira, 4 de Janeiro de 2017",2017-01-04,12,NI,Não Informado,NI,-1,-1,-1,461,ROUBO A CAMINHÃO,ROUBO,ALAGOINHA,Vítima,1,2,1
C1069327170124074100,24/1/2017,"Terça-feira, 24 de Janeiro de 2017",2017-01-24,7,PE,PERNAMBUCO,232 ,163,-8.333199,-36.277499,461,ROUBO A CAMINHÃO,ROUBO,TACAIMBO,Envolvido,1,1,1
C1069560170614145700,13/6/2017,"Terça-feira, 13 de Junho de 2017",2017-06-13,20,PE,PERNAMBUCO,232 ,26,-8.113799,-35.117599,461,ROUBO A CAMINHÃO,ROUBO,MORENO,Vítima,1,3,1
C1069568170305200400,5/3/2017,"Domingo, 5 de Março de 2017",2017-03-05,20,PE,PERNAMBUCO,316 ,324,-8.699299,-38.522999,461,ROUBO A CAMINHÃO,ROUBO,FLORESTA,Autor,1,1,1
C1069672170530101500,30/5/2017,"Terça-feira, 30 de Maio de 2017",2017-05-30,1,SE,SERGIPE,101 ,205,-11.512599,-37.793199,461,ROUBO A CAMINHÃO,ROUBO,CRISTINAPOLIS,Vítima,1,1,0
C1069690170418140200,18/4/2017,"Terça-feira, 18 de Abril de 2017",2017-04-18,11,PE,PERNAMBUCO,101 ,5,-7.541999,-34.990999,461,ROUBO A CAMINHÃO,ROUBO,GOIANA,Vítima,1,1,1
C1069690170418170400,18/4/2017,"Terça-feira, 18 de Abril de 2017",2017-04-18,12,PE,PERNAMBUCO,101 ,7,-7.559899,-34.990699,461,ROUBO A CAMINHÃO,ROUBO,GOIANA,Vítima,1,1,1
C1069690170418174100,18/4/2017,"Terça-feira, 18 de Abril de 2017",2017-04-18,12,PE,PERNAMBUCO,101 ,5,-7.541999,-34.990999,461,ROUBO A CAMINHÃO,ROUBO,GOIANA,Vítima,1,1,1
C1069732170504070900,4/5/2017,"Quinta-feira, 4 de Maio de 2017",2017-05-04,0,BA,BAHIA,116 ,1,-14.825399,-40.841999,461,ROUBO A CAMINHÃO,ROUBO,TUCANO,Envolvido,1,1,0
C1069774170131030000,31/1/2017,"Terça-feira, 31 de Janeiro de 2017",2017-01-31,2,PB,PARAÍBA,101 ,110,-7.355999,-34.950299,461,ROUBO A CAMINHÃO,ROUBO,ALHANDRA,Vítima,1,1,1
C1069793170113220200,13/1/2017,"Sexta-feira, 13 de Janeiro de 2017",2017-01-13,19,PB,PARAÍBA,101 ,62,-7.015499,-35.061499,461,ROUBO A CAMINHÃO,ROUBO,SANTA RITA,Vítima,1,1,1
C1069906170121115500,20/1/2017,"Sexta-feira, 20 de Janeiro de 2017",2017-01-20,23,PE,PERNAMBUCO,232 ,182,-8.347699,-36.444699,461,ROUBO A CAMINHÃO,ROUBO,BELO JARDIM,Vítima,1,1,3
C1070876170207160200,7/2/2017,"Terça-feira, 7 de Fevereiro de 2017",2017-02-07,16,GO,GOIÁS,153 ,661,-18.054899,-49.269399,461,ROUBO A CAMINHÃO,ROUBO,GOIATUBA,Vítima,1,1,2
C1070922170418105800,18/4/2017,"Terça-feira, 18 de Abril de 2017",2017-04-18,10,GO,GOIÁS,060 ,95,-16.367899,-48.938999,461,ROUBO A CAMINHÃO,ROUBO,ANAPOLIS,Vítima,1,1,1
C1071091170119124300,19/1/2017,"Quinta-feira, 19 de Janeiro de 2017",2017-01-19,3,GO,GOIÁS,153 ,563,-17.231599,-49.232799,461,ROUBO A CAMINHÃO,ROUBO,GOIANIA,Vítima,1,1,1
C1071110170617074800,16/6/2017,"Sexta-feira, 16 de Junho de 2017",2017-06-16,22,MG,MINAS GERAIS,365 ,665,-18.890199,-48.632399,461,ROUBO A CAMINHÃO,ROUBO,MONTE ALEGRE DE MINAS,Vítima,1,1,1
C1071110170621074000,20/6/2017,"Terça-feira, 20 de Junho de 2017",2017-06-20,22,MG,MINAS GERAIS,153 ,1,-18.425699,-49.193899,461,ROUBO A CAMINHÃO,ROUBO,ARAPORA,Vítima,1,2,2
C1071224170114081600,14/1/2017,"Sábado, 14 de Janeiro de 2017",2017-01-14,8,NI,Não Informado,NI,-1,-1,-1,461,ROUBO A CAMINHÃO,ROUBO,FLORES DE GOIAS,Vítima,1,1,3
C1071239170210093000,10/2/2017,"Sexta-feira, 10 de Fevereiro de 2017",2017-02-10,7,NI,Não Informado,NI,-1,-1,-1,461,ROUBO A CAMINHÃO,ROUBO,AQUIDABA,Vítima,1,1,2
C1071850170502211000,2/5/2017,"Terça-feira, 2 de Maio de 2017",2017-05-02,20,SC,SANTA CATARINA,101 ,355,-28.620499,-49.073999,461,ROUBO A CAMINHÃO,ROUBO,JAGUARUNA,Vítima,1,1,0
C1072960170316184800,15/3/2017,"Quarta-feira, 15 de Março de 2017",2017-03-15,16,SP,SÃO PAULO,381 ,41,-23.147299,-46.574699,461,ROUBO A CAMINHÃO,ROUBO,ATIBAIA,Autor,1,1,1
C1072960170316184800,15/3/2017,"Quarta-feira, 15 de Março de 2017",2017-03-15,16,SP,SÃO PAULO,381 ,41,-23.147299,-46.574699,461,ROUBO A CAMINHÃO,ROUBO,ATIBAIA,Vítima,1,1,1
C1072960170404234900,4/4/2017,"Terça-feira, 4 de Abril de 2017",2017-04-04,20,SP,SÃO PAULO,381 ,30,-23.047799,-46.563599,461,ROUBO A CAMINHÃO,ROUBO,ATIBAIA,Vítima,1,1,4
C1073359170221124200,21/2/2017,"Terça-feira, 21 de Fevereiro de 2017",2017-02-21,2,SP,SÃO PAULO,116 ,509,-24.830499,-48.209499,461,ROUBO A CAMINHÃO,ROUBO,CAJATI,Vítima,1,1,1
C1073467170325204700,25/3/2017,"Sábado, 25 de Março de 2017",2017-03-25,13,MG,MINAS GERAIS,116 ,2,-15.717799,-41.340699,461,ROUBO A CAMINHÃO,ROUBO,DIVISA ALEGRE,Vítima,1,1,1
C1073671170209090200,9/2/2017,"Quinta-feira, 9 de Fevereiro de 2017",2017-02-09,9,NI,Não Informado,NI,-1,-1,-1,461,ROUBO A CAMINHÃO,ROUBO,RIO LARGO,Vítima,1,1,1
C1073764170402120000,2/4/2017,"Domingo, 2 de Abril de 2017",2017-04-02,3,PE,PERNAMBUCO,232 ,433,-8.002999,-38.470199,461,ROUBO A CAMINHÃO,ROUBO,SERRA TALHADA,Vítima,1,3,3
C1073764170426071500,26/4/2017,"Quarta-feira, 26 de Abril de 2017",2017-04-26,3,PE,PERNAMBUCO,232 ,433,-8.002999,-38.470199,461,ROUBO A CAMINHÃO,ROUBO,SERRA TALHADA,Vítima,1,1,1
C1074025170512142900,12/5/2017,"Sexta-feira, 12 de Maio de 2017",2017-05-12,14,GO,GOIÁS,153 ,522,-16.893699,-49.255699,461,ROUBO A CAMINHÃO,ROUBO,HIDROLANDIA,Vítima,1,1,1
C1074263170505071900,5/5/2017,"Sexta-feira, 5 de Maio de 2017",2017-05-05,7,RS,RIO GRANDE DO SUL,101 ,33,-29.505999,-49.983499,461,ROUBO A CAMINHÃO,ROUBO,TRES CACHOEIRAS,Vítima,1,1,1
C1078138170505090000,5/5/2017,"Sexta-feira, 5 de Maio de 2017",2017-05-05,8,PR,PARANÁ,476 ,164,-25.636099,-49.465799,461,ROUBO A CAMINHÃO,ROUBO,ARAUCARIA,Testemunha,1,1,3
C1078138170505090000,5/5/2017,"Sexta-feira, 5 de Maio de 2017",2017-05-05,8,PR,PARANÁ,476 ,164,-25.636099,-49.465799,461,ROUBO A CAMINHÃO,ROUBO,ARAUCARIA,Vítima,1,4,3
C1078316170507133000,6/5/2017,"Sábado, 6 de Maio de 2017",2017-05-06,15,GO,GOIÁS,364 ,104,-18.378199,-51.115899,461,ROUBO A CAMINHÃO,ROUBO,CACHOEIRA ALTA,Vítima,1,1,1
C1098731170508172700,8/5/2017,"Segunda-feira, 8 de Maio de 2017",2017-05-08,17,GO,GOIÁS,153 ,662,-18.063799,-49.268999,461,ROUBO A CAMINHÃO,ROUBO,GOIATUBA,Vítima,1,1,1
C1182744170125110800,25/1/2017,"Quarta-feira, 25 de Janeiro de 2017",2017-01-25,8,SP,SÃO PAULO,116 ,50,-22.735199,-45.083399,461,ROUBO A CAMINHÃO,ROUBO,LORENA,Vítima,1,1,2
C1183267170104154600,4/1/2017,"Quarta-feira, 4 de Janeiro de 2017",2017-01-04,14,PB,PARAÍBA,101 ,45,-6.880199,-35.131799,461,ROUBO A CAMINHÃO,ROUBO,MAMANGUAPE,Vítima,1,1,3
C1183894170309080100,9/3/2017,"Quinta-feira, 9 de Março de 2017",2017-03-09,8,NI,Não Informado,NI,-1,-1,-1,461,ROUBO A CAMINHÃO,ROUBO,NOVA IGUACU,Vítima,1,1,1
C1183894170504072700,4/5/2017,"Quinta-feira, 4 de Maio de 2017",2017-05-04,0,RJ,RIO DE JANEIRO,116 ,228,-22.666399,-43.846699,461,ROUBO A CAMINHÃO,ROUBO,PIRAI,Vítima,1,1,1
C1185285170524052700,23/5/2017,"Terça-feira, 23 de Maio de 2017",2017-05-23,15,BA,BAHIA,324 ,597,-12.737099,-38.439799,461,ROUBO A CAMINHÃO,ROUBO,CANDEIAS,Vítima,1,1,1
C1185288170515133000,15/5/2017,"Segunda-feira, 15 de Maio de 2017",2017-05-15,6,GO,GOIÁS,153 ,537,-17.019299,-49.221699,461,ROUBO A CAMINHÃO,ROUBO,HIDROLANDIA,Vítima,1,1,1
C1199853170511162700,11/5/2017,"Quinta-feira, 11 de Maio de 2017",2017-05-11,16,MT,MATO GROSSO,158 ,740,-15.399399,-52.200899,461,ROUBO A CAMINHÃO,ROUBO,BARRA DO GARCAS,Vítima,1,1,1
C1199904170116143200,16/1/2017,"Segunda-feira, 16 de Janeiro de 2017",2017-01-16,10,SP,SÃO PAULO,116 ,180,-23.335499,-46.143499,461,ROUBO A CAMINHÃO,ROUBO,GUARAREMA,Vítima,1,1,1
C1199934170327131500,27/3/2017,"Segunda-feira, 27 de Março de 2017",2017-03-27,12,PE,PERNAMBUCO,232 ,121,-8.301099,-35.914899,461,ROUBO A CAMINHÃO,ROUBO,CARUARU,Vítima,1,1,1
C1241413170620092500,20/6/2017,"Terça-feira, 20 de Junho de 2017",2017-06-20,0,BA,BAHIA,101 ,39,-11.804199,-37.958099,461,ROUBO A CAMINHÃO,ROUBO,ESPLANADA,Vítima,1,1,3
C1286973170223030800,23/2/2017,"Quinta-feira, 23 de Fevereiro de 2017",2017-02-23,1,PB,PARAÍBA,101 ,63,-7.024299,-35.061099,461,ROUBO A CAMINHÃO,ROUBO,SANTA RITA,Vítima,1,5,5
C1286973170311024700,11/3/2017,"Sábado, 11 de Março de 2017",2017-03-11,1,PB,PARAÍBA,101 ,62,-7.015499,-35.061499,461,ROUBO A CAMINHÃO,ROUBO,MAMANGUAPE,Vítima,1,1,1
C1286973170403191100,3/4/2017,"Segunda-feira, 3 de Abril de 2017",2017-04-03,1,PB,PARAÍBA,101 ,59,-6.990599,-35.071199,461,ROUBO A CAMINHÃO,ROUBO,MAMANGUAPE,Vítima,1,2,2
C1286973170502051300,1/5/2017,"Segunda-feira, 1 de Maio de 2017",2017-05-01,23,PB,PARAÍBA,101 ,68,-7.055599,-35.030699,461,ROUBO A CAMINHÃO,ROUBO,SANTA RITA,Vítima,1,3,3
C1301360170217064500,16/2/2017,"Quinta-feira, 16 de Fevereiro de 2017",2017-02-16,18,GO,GOIÁS,153 ,661,-18.054899,-49.269399,461,ROUBO A CAMINHÃO,ROUBO,GOIATUBA,Vítima,1,1,1
C1301360170504063000,4/5/2017,"Quinta-feira, 4 de Maio de 2017",2017-05-04,0,GO,GOIÁS,060 ,127,-16.541199,-49.149499,461,ROUBO A CAMINHÃO,ROUBO,GOIANAPOLIS,Vítima,1,2,1
C1301449170619032500,19/6/2017,"Segunda-feira, 19 de Junho de 2017",2017-06-19,0,BA,BAHIA,101 ,17,-11.623399,-37.885299,461,ROUBO A CAMINHÃO,ROUBO,RIO REAL,Vítima,1,2,1
C1301494170506110000,6/5/2017,"Sábado, 6 de Maio de 2017",2017-05-06,10,RJ,RIO DE JANEIRO,393 ,146,-22.049799,-43.017799,461,ROUBO A CAMINHÃO,ROUBO,TRES RIOS,Envolvido,1,1,0
C1301498170515081000,14/5/2017,"Domingo, 14 de Maio de 2017",2017-05-14,8,NI,Não Informado,NI,-1,-1,-1,461,ROUBO A CAMINHÃO,ROUBO,CUIABA,Vítima,1,1,1
C1301560170313203400,13/3/2017,"Segunda-feira, 13 de Março de 2017",2017-03-13,20,NI,Não Informado,NI,-1,-1,-1,461,ROUBO A CAMINHÃO,ROUBO,JUQUIA,Vítima,1,1,1
C1301759170509054800,9/5/2017,"Terça-feira, 9 de Maio de 2017",2017-05-09,5,AL,ALAGOAS,423 ,8,-9.142999,-37.360199,461,ROUBO A CAMINHÃO,ROUBO,OURO BRANCO,Vítima,1,1,1
C1301891170515073600,15/5/2017,"Segunda-feira, 15 de Maio de 2017",2017-05-15,3,TO,TOCANTINS,153 ,572,-10.841399,-48.904499,461,ROUBO A CAMINHÃO,ROUBO,SANTA RITA DO TOCANTINS,Vítima,1,1,2
C1307093170131021600,30/1/2017,"Segunda-feira, 30 de Janeiro de 2017",2017-01-30,22,AL,ALAGOAS,101 ,228,-10.100199,-36.707599,461,ROUBO A CAMINHÃO,ROUBO,PORTO REAL DO COLEGIO,Vítima,1,2,2
C1308896170512220900,12/5/2017,"Sexta-feira, 12 de Maio de 2017",2017-05-12,16,AL,ALAGOAS,101 ,87,-9.481799,-35.887299,461,ROUBO A CAMINHÃO,ROUBO,RIO LARGO,Vítima,1,2,1
C1317957170428021100,27/4/2017,"Quinta-feira, 27 de Abril de 2017",2017-04-27,21,PE,PERNAMBUCO,101 ,2,-7.516199,-34.991399,461,ROUBO A CAMINHÃO,ROUBO,GOIANA,Vítima,1,1,1
C1322721170529044500,28/5/2017,"Domingo, 28 de Maio de 2017",2017-05-28,5,GO,GOIÁS,153 ,159,-14.158999,-49.122199,461,ROUBO A CAMINHÃO,ROUBO,URUACU,Vítima,1,2,1
C1370549170504065700,4/5/2017,"Quinta-feira, 4 de Maio de 2017",2017-05-04,6,PE,PERNAMBUCO,116 ,72,-8.459399,-39.193699,461,ROUBO A CAMINHÃO,ROUBO,CABROBO,Vítima,1,1,1
C1370549170504215500,4/5/2017,"Quinta-feira, 4 de Maio de 2017",2017-05-04,21,PE,PERNAMBUCO,316 ,247,-8.628099,-39.068699,461,ROUBO A CAMINHÃO,ROUBO,BELEM DE SAO FRANCISCO,Vítima,1,1,1
C1370549170528181000,28/5/2017,"Domingo, 28 de Maio de 2017",2017-05-28,17,PE,PERNAMBUCO,316 ,256,-8.664799,-38.996099,461,ROUBO A CAMINHÃO,ROUBO,BELEM DE SAO FRANCISCO,Vítima,1,1,1
C1370783170210220000,10/2/2017,"Sexta-feira, 10 de Fevereiro de 2017",2017-02-10,21,GO,GOIÁS,020 ,3,-15.567899,-47.320899,461,ROUBO A CAMINHÃO,ROUBO,FORMOSA,Vítima,1,1,0
C1370881170219073500,18/2/2017,"Sábado, 18 de Fevereiro de 2017",2017-02-18,3,MG,MINAS GERAIS,135 ,582,-18.420299,-44.457699,461,ROUBO A CAMINHÃO,ROUBO,CORINTO,Vítima,1,2,1
C1371150170216180000,16/2/2017,"Quinta-feira, 16 de Fevereiro de 2017",2017-02-16,15,RJ,RIO DE JANEIRO,116 ,108,-22.561899,-42.997699,461,ROUBO A CAMINHÃO,ROUBO,GUAPIMIRIM,Vítima,1,1,1
C1371193170325000600,25/3/2017,"Sábado, 25 de Março de 2017",2017-03-25,0,RJ,RIO DE JANEIRO,393 ,158,-22.099799,-43.093099,461,ROUBO A CAMINHÃO,ROUBO,TRES RIOS,Vítima,1,1,1
C1371204170406110600,2/4/2017,"Domingo, 2 de Abril de 2017",2017-04-02,8,SP,SÃO PAULO,381 ,52,-23.229699,-46.599099,461,ROUBO A CAMINHÃO,ROUBO,ATIBAIA,Vítima,1,2,1
C1371720170517090100,17/5/2017,"Quarta-feira, 17 de Maio de 2017",2017-05-17,7,GO,GOIÁS,060 ,93,-16.353799,-48.926799,461,ROUBO A CAMINHÃO,ROUBO,ANAPOLIS,Vítima,1,1,1
C1371880170326173100,26/3/2017,"Domingo, 26 de Março de 2017",2017-03-26,17,BA,BAHIA,116 ,932,-15.688099,-41.327099,461,ROUBO A CAMINHÃO,ROUBO,ENCRUZILHADA,Autor,1,1,2
C1371880170326173100,26/3/2017,"Domingo, 26 de Março de 2017",2017-03-26,17,BA,BAHIA,116 ,932,-15.688099,-41.327099,461,ROUBO A CAMINHÃO,ROUBO,ENCRUZILHADA,Coautor,1,1,2
C1371880170326173100,26/3/2017,"Domingo, 26 de Março de 2017",2017-03-26,17,BA,BAHIA,116 ,932,-15.688099,-41.327099,461,ROUBO A CAMINHÃO,ROUBO,ENCRUZILHADA,Testemunha,1,1,2
C1371880170326173100,26/3/2017,"Domingo, 26 de Março de 2017",2017-03-26,17,BA,BAHIA,116 ,932,-15.688099,-41.327099,461,ROUBO A CAMINHÃO,ROUBO,ENCRUZILHADA,Vítima,1,1,2
C1371880170521121300,21/5/2017,"Domingo, 21 de Maio de 2017",2017-05-21,12,MG,MINAS GERAIS,251 ,205,-15.860199,-41.488999,461,ROUBO A CAMINHÃO,ROUBO,CACHOEIRA DE PAJEU,Vítima,1,1,1
C1393641170429212600,29/4/2017,"Sábado, 29 de Abril de 2017",2017-04-29,21,PB,PARAÍBA,101 ,77,-7.092099,-34.968399,461,ROUBO A CAMINHÃO,ROUBO,SANTA RITA,Vítima,1,1,1
C1395513170209111300,9/2/2017,"Quinta-feira, 9 de Fevereiro de 2017",2017-02-09,2,NI,Não Informado,NI,-1,-1,-1,461,ROUBO A CAMINHÃO,ROUBO,SIMOLANDIA,Vítima,1,1,4
C1406018170512013500,12/5/2017,"Sexta-feira, 12 de Maio de 2017",2017-05-12,1,NI,Não Informado,NI,-1,-1,-1,461,ROUBO A CAMINHÃO,ROUBO,EUSEBIO,Vítima,1,1,0
C1417784170128095500,28/1/2017,"Sábado, 28 de Janeiro de 2017",2017-01-28,9,SP,SÃO PAULO,116 ,280,-23.646199,-46.841399,461,ROUBO A CAMINHÃO,ROUBO,EMBU DAS ARTES,Vítima,1,1,1
C1417932170310111500,10/3/2017,"Sexta-feira, 10 de Março de 2017",2017-03-10,10,PE,PERNAMBUCO,101 ,70,-8.067799,-34.942699,461,ROUBO A CAMINHÃO,ROUBO,RECIFE,Vítima,1,1,1
C1461549170422141800,22/4/2017,"Sábado, 22 de Abril de 2017",2017-04-22,14,PE,PERNAMBUCO,232 ,422,-8.000199,-38.372499,461,ROUBO A CAMINHÃO,ROUBO,SERRA TALHADA,Vítima,1,2,1
C1461564170128071400,28/1/2017,"Sábado, 28 de Janeiro de 2017",2017-01-28,2,CE,CEARÁ,116 ,141,-4.779099,-38.049299,461,ROUBO A CAMINHÃO,ROUBO,RUSSAS,Vítima,1,1,2
C1461564170128090300,28/1/2017,"Sábado, 28 de Janeiro de 2017",2017-01-28,2,CE,CEARÁ,116 ,112,-4.588099,-38.218099,461,ROUBO A CAMINHÃO,ROUBO,RUSSAS,Vítima,1,1,0
C1462303170201224700,1/2/2017,"Quarta-feira, 1 de Fevereiro de 2017",2017-02-01,22,RJ,RIO DE JANEIRO,101 ,308,-22.792799,-43.024099,461,ROUBO A CAMINHÃO,ROUBO,SAO GONCALO,Testemunha,1,1,1
C1462335170313121900,13/3/2017,"Segunda-feira, 13 de Março de 2017",2017-03-13,12,RJ,RIO DE JANEIRO,116 ,89,-22.461299,-42.982499,461,ROUBO A CAMINHÃO,ROUBO,TERESOPOLIS,Vítima,1,1,1
C1462335170501080700,1/5/2017,"Segunda-feira, 1 de Maio de 2017",2017-05-01,3,RJ,RIO DE JANEIRO,116 ,139,-22.653899,-43.241999,461,ROUBO A CAMINHÃO,ROUBO,DUQUE DE CAXIAS,Vítima,1,1,1
C1462357170419182000,19/4/2017,"Quarta-feira, 19 de Abril de 2017",2017-04-19,14,RJ,RIO DE JANEIRO,116 ,163,-22.816699,-43.325099,461,ROUBO A CAMINHÃO,ROUBO,RIO DE JANEIRO,Vítima,1,1,1
C1462357170509235100,9/5/2017,"Terça-feira, 9 de Maio de 2017",2017-05-09,21,RJ,RIO DE JANEIRO,116 ,169,-22.791199,-43.369399,461,ROUBO A CAMINHÃO,ROUBO,SAO JOAO DE MERITI,Vítima,1,1,1
C1462357170618160400,18/6/2017,"Domingo, 18 de Junho de 2017",2017-06-18,12,RJ,RIO DE JANEIRO,116 ,180,-22.739999,-43.459499,461,ROUBO A CAMINHÃO,ROUBO,NOVA IGUACU,Vítima,1,1,1
C1462357170623045100,23/6/2017,"Sexta-feira, 23 de Junho de 2017",2017-06-23,2,RJ,RIO DE JANEIRO,116 ,207,-22.716199,-43.715799,461,ROUBO A CAMINHÃO,ROUBO,SEROPEDICA,Vítima,1,1,1
C1462465170409095000,9/4/2017,"Domingo, 9 de Abril de 2017",2017-04-09,9,NI,Não Informado,NI,-1,-1,-1,461,ROUBO A CAMINHÃO,ROUBO,CODO,Vítima,1,3,2
C1465805170528202000,28/5/2017,"Domingo, 28 de Maio de 2017",2017-05-28,20,BA,BAHIA,101 ,503,-14.770999,-39.291999,461,ROUBO A CAMINHÃO,ROUBO,ITABUNA,Testemunha,1,1,1
C1466054170217180200,17/2/2017,"Sexta-feira, 17 de Fevereiro de 2017",2017-02-17,18,PB,PARAÍBA,230 ,89,-7.170799,-35.383099,461,ROUBO A CAMINHÃO,ROUBO,GURINHEM,Vítima,1,2,5
C1467793170515045800,14/5/2017,"Domingo, 14 de Maio de 2017",2017-05-14,23,PA,PARÁ,316 ,180,-1.413599,-46.998399,461,ROUBO A CAMINHÃO,ROUBO,SANTA LUZIA DO PARA,Vítima,1,1,1
C1475267170215005900,15/2/2017,"Quarta-feira, 15 de Fevereiro de 2017",2017-02-15,0,DF,DISTRITO FEDERAL,020 ,36,-15.581899,-47.549499,461,ROUBO A CAMINHÃO,ROUBO,BRASILIA,Vítima,1,1,1
C1480319170324101100,24/3/2017,"Sexta-feira, 24 de Março de 2017",2017-03-24,2,NI,Não Informado,NI,-1,-1,-1,461,ROUBO A CAMINHÃO,ROUBO,GARANHUNS,Vítima,1,1,2
C1480406170220021000,19/2/2017,"Domingo, 19 de Fevereiro de 2017",2017-02-19,22,BA,BAHIA,101 ,4,-11.536799,-37.831599,461,ROUBO A CAMINHÃO,ROUBO,ENTRE RIOS,Vítima,1,1,1
C1480406170618131600,18/6/2017,"Domingo, 18 de Junho de 2017",2017-06-18,10,BA,BAHIA,101 ,1,-11.524199,-37.809499,461,ROUBO A CAMINHÃO,ROUBO,RIO REAL,Vítima,1,1,1
C1480406170618190500,18/6/2017,"Domingo, 18 de Junho de 2017",2017-06-18,18,SE,SERGIPE,101 ,199,-11.476699,-37.756399,461,ROUBO A CAMINHÃO,ROUBO,CRISTINAPOLIS,Autor,1,1,1
C1480406170618190500,18/6/2017,"Domingo, 18 de Junho de 2017",2017-06-18,18,SE,SERGIPE,101 ,199,-11.476699,-37.756399,461,ROUBO A CAMINHÃO,ROUBO,CRISTINAPOLIS,Coautor,1,1,1
C1480406170618190500,18/6/2017,"Domingo, 18 de Junho de 2017",2017-06-18,18,SE,SERGIPE,101 ,199,-11.476699,-37.756399,461,ROUBO A CAMINHÃO,ROUBO,CRISTINAPOLIS,Vítima,1,1,1
C1480459170522072200,21/5/2017,"Domingo, 21 de Maio de 2017",2017-05-21,19,RJ,RIO DE JANEIRO,116 ,273,-22.547599,-44.183499,461,ROUBO A CAMINHÃO,ROUBO,BARRA MANSA,Vítima,1,1,1
C1480463170614003000,13/6/2017,"Terça-feira, 13 de Junho de 2017",2017-06-13,22,CE,CEARÁ,116 ,82,-4.418399,-38.407099,461,ROUBO A CAMINHÃO,ROUBO,OCARA,Vítima,1,1,1
C1480536170320235700,20/3/2017,"Segunda-feira, 20 de Março de 2017",2017-03-20,22,RJ,RIO DE JANEIRO,101 ,309,-22.794699,-43.033399,461,ROUBO A CAMINHÃO,ROUBO,SAO GONCALO,Vítima,1,1,1
C1480561170423205900,23/4/2017,"Domingo, 23 de Abril de 2017",2017-04-23,20,RJ,RIO DE JANEIRO,393 ,163,-22.120399,-43.132999,461,ROUBO A CAMINHÃO,ROUBO,TRES RIOS,Vítima,1,1,1
C1480639170404084000,4/4/2017,"Terça-feira, 4 de Abril de 2017",2017-04-04,4,AL,ALAGOAS,101 ,2,-8.896199,-35.634899,461,ROUBO A CAMINHÃO,ROUBO,NOVO LINO,Vítima,1,2,4
C1480667170526163300,25/5/2017,"Quinta-feira, 25 de Maio de 2017",2017-05-25,5,RJ,RIO DE JANEIRO,116 ,207,-22.716199,-43.715799,461,ROUBO A CAMINHÃO,ROUBO,SEROPEDICA,Vítima,1,1,1
C1480764170310041700,10/3/2017,"Sexta-feira, 10 de Março de 2017",2017-03-10,3,PR,PARANÁ,116 ,34,-25.120799,-48.855199,461,ROUBO A CAMINHÃO,ROUBO,CAMPINA GRANDE DO SUL,Vítima,1,1,1
C1480833170214163900,14/2/2017,"Terça-feira, 14 de Fevereiro de 2017",2017-02-14,16,GO,GOIÁS,153 ,500,-16.703299,-49.231099,461,ROUBO A CAMINHÃO,ROUBO,GOIANIA,Vítima,1,1,1
C1480875170416090000,16/4/2017,"Domingo, 16 de Abril de 2017",2017-04-16,6,PR,PARANÁ,277 ,112,-25.446699,-49.473699,461,ROUBO A CAMINHÃO,ROUBO,CAMPO LARGO,Vítima,1,1,1
C1481003170212153000,12/2/2017,"Domingo, 12 de Fevereiro de 2017",2017-02-12,15,GO,GOIÁS,060 ,79,-16.300699,-48.812799,461,ROUBO A CAMINHÃO,ROUBO,ANAPOLIS,Vítima,1,1,1
C1481003170405183400,4/4/2017,"Terça-feira, 4 de Abril de 2017",2017-04-04,21,GO,GOIÁS,153 ,383,-15.935199,-49.202099,461,ROUBO A CAMINHÃO,ROUBO,SAO FRANCISCO DE GOIAS,Vítima,1,1,1
C1481575170622180000,22/6/2017,"Quinta-feira, 22 de Junho de 2017",2017-06-22,10,PE,PERNAMBUCO,101 ,92,-8.230499,-34.996999,461,ROUBO A CAMINHÃO,ROUBO,CABO DE SANTO AGOSTINHO,Autor,1,1,1
C1502684170301115600,1/3/2017,"Quarta-feira, 1 de Março de 2017",2017-03-01,11,SP,SÃO PAULO,116 ,169,-23.307699,-46.044499,461,ROUBO A CAMINHÃO,ROUBO,JACAREI,Testemunha,1,1,1
C1502684170301115600,1/3/2017,"Quarta-feira, 1 de Março de 2017",2017-03-01,11,SP,SÃO PAULO,116 ,169,-23.307699,-46.044499,461,ROUBO A CAMINHÃO,ROUBO,JACAREI,Vítima,1,1,1
C1502708170210021400,9/2/2017,"Quinta-feira, 9 de Fevereiro de 2017",2017-02-09,20,AL,ALAGOAS,101 ,25,-9.057799,-35.718899,461,ROUBO A CAMINHÃO,ROUBO,JOAQUIM GOMES,Vítima,1,1,2
C1502795170211181200,11/2/2017,"Sábado, 11 de Fevereiro de 2017",2017-02-11,14,TO,TOCANTINS,226 ,39,-6.713099,-47.757799,461,ROUBO A CAMINHÃO,ROUBO,DARCINOPOLIS,Vítima,1,1,2
C1502829170508211800,8/5/2017,"Segunda-feira, 8 de Maio de 2017",2017-05-08,19,SP,SÃO PAULO,381 ,79,-23.405299,-46.579499,461,ROUBO A CAMINHÃO,ROUBO,SAO PAULO,Vítima,1,1,1
C1502873170505090500,5/5/2017,"Sexta-feira, 5 de Maio de 2017",2017-05-05,7,RJ,RIO DE JANEIRO,116 ,137,-22.647199,-43.224299,461,ROUBO A CAMINHÃO,ROUBO,DUQUE DE CAXIAS,Vítima,1,2,1
C1502937170621224500,20/6/2017,"Terça-feira, 20 de Junho de 2017",2017-06-20,22,SP,SÃO PAULO,116 ,169,-23.307699,-46.044499,461,ROUBO A CAMINHÃO,ROUBO,SAO JOSE DOS CAMPOS,Vítima,1,1,1
C1503294170525225100,25/5/2017,"Quinta-feira, 25 de Maio de 2017",2017-05-25,19,PB,PARAÍBA,101 ,63,-7.024299,-35.061099,461,ROUBO A CAMINHÃO,ROUBO,SANTA RITA,Vítima,1,1,1
C1503398170405230300,5/4/2017,"Quarta-feira, 5 de Abril de 2017",2017-04-05,22,PR,PARANÁ,116 ,114,-25.546299,-49.293599,461,ROUBO A CAMINHÃO,ROUBO,CURITIBA,Vítima,1,1,2
C1503528170113035200,13/1/2017,"Sexta-feira, 13 de Janeiro de 2017",2017-01-13,2,PB,PARAÍBA,101 ,110,-7.355999,-34.950299,461,ROUBO A CAMINHÃO,ROUBO,ALHANDRA,Vítima,1,1,1
C1503528170410213700,10/4/2017,"Segunda-feira, 10 de Abril de 2017",2017-04-10,19,PE,PERNAMBUCO,101 ,30,-7.739199,-34.943199,461,ROUBO A CAMINHÃO,ROUBO,IGARASSU,Vítima,1,1,1
C1503586170609112000,9/6/2017,"Sexta-feira, 9 de Junho de 2017",2017-06-09,5,MG,MINAS GERAIS,040 ,529,-19.919099,-44.039099,461,ROUBO A CAMINHÃO,ROUBO,CONTAGEM,Vítima,1,1,1
C1503650170624033000,24/6/2017,"Sábado, 24 de Junho de 2017",2017-06-24,3,SP,SÃO PAULO,116 ,130,-23.121099,-45.723899,461,ROUBO A CAMINHÃO,ROUBO,CACAPAVA,Vítima,1,1,2
C1503784170613093000,13/6/2017,"Terça-feira, 13 de Junho de 2017",2017-06-13,6,PE,PERNAMBUCO,232 ,29,-8.111199,-35.143799,461,ROUBO A CAMINHÃO,ROUBO,MORENO,Vítima,1,1,1
C1503784170629044000,28/6/2017,"Quarta-feira, 28 de Junho de 2017",2017-06-28,23,PE,PERNAMBUCO,101 ,24,-7.692999,-34.921899,461,ROUBO A CAMINHÃO,ROUBO,IGARASSU,Vítima,1,1,1
C1503850170321185400,21/3/2017,"Terça-feira, 21 de Março de 2017",2017-03-21,18,PE,PERNAMBUCO,316 ,323,-8.693699,-38.530599,461,ROUBO A CAMINHÃO,ROUBO,FLORESTA,Vítima,1,1,1
C1503850170328210000,28/3/2017,"Terça-feira, 28 de Março de 2017",2017-03-28,19,PE,PERNAMBUCO,316 ,306,-8.619699,-38.625799,461,ROUBO A CAMINHÃO,ROUBO,FLORESTA,Vítima,1,2,1
C1503850170328210500,28/3/2017,"Terça-feira, 28 de Março de 2017",2017-03-28,21,PE,PERNAMBUCO,316 ,306,-8.619699,-38.625799,461,ROUBO A CAMINHÃO,ROUBO,FLORESTA,Vítima,1,1,1
C1503850170328210600,28/3/2017,"Terça-feira, 28 de Março de 2017",2017-03-28,21,PE,PERNAMBUCO,316 ,306,-8.619699,-38.625799,461,ROUBO A CAMINHÃO,ROUBO,FLORESTA,Vítima,1,1,1
C1503939170617034500,17/6/2017,"Sábado, 17 de Junho de 2017",2017-06-17,3,PB,PARAÍBA,101 ,53,-6.942999,-35.096899,461,ROUBO A CAMINHÃO,ROUBO,SANTA RITA,Vítima,1,1,1
C1503989170620023000,20/6/2017,"Terça-feira, 20 de Junho de 2017",2017-06-20,2,RJ,RIO DE JANEIRO,116 ,187,-22.740299,-43.525999,461,ROUBO A CAMINHÃO,ROUBO,NOVA IGUACU,Vítima,1,1,1
C1515254170419021600,19/4/2017,"Quarta-feira, 19 de Abril de 2017",2017-04-19,1,RJ,RIO DE JANEIRO,116 ,204,-22.720399,-43.686999,461,ROUBO A CAMINHÃO,ROUBO,PARACAMBI,Vítima,1,1,2
C1515259170310100000,10/3/2017,"Sexta-feira, 10 de Março de 2017",2017-03-10,2,SP,SÃO PAULO,116 ,195,-23.388399,-46.274699,461,ROUBO A CAMINHÃO,ROUBO,ARUJA,Vítima,1,1,1
C1515265170505072900,5/5/2017,"Sexta-feira, 5 de Maio de 2017",2017-05-05,6,RJ,RIO DE JANEIRO,116 ,185,-22.743999,-43.507199,461,ROUBO A CAMINHÃO,ROUBO,NOVA IGUACU,Vítima,1,1,1
C1515265170601234500,1/6/2017,"Quinta-feira, 1 de Junho de 2017",2017-06-01,22,RJ,RIO DE JANEIRO,116 ,179,-22.743199,-43.450799,461,ROUBO A CAMINHÃO,ROUBO,NOVA IGUACU,Vítima,1,1,2
C1515455170216005000,16/2/2017,"Quinta-feira, 16 de Fevereiro de 2017",2017-02-16,0,PB,PARAÍBA,101 ,45,-6.880199,-35.131799,461,ROUBO A CAMINHÃO,ROUBO,MAMANGUAPE,Vítima,1,1,1
C1515455170608072700,8/6/2017,"Quinta-feira, 8 de Junho de 2017",2017-06-08,3,PB,PARAÍBA,101 ,58,-6.982499,-35.075299,461,ROUBO A CAMINHÃO,ROUBO,SANTA RITA,Vítima,1,3,2
C1515456170220130900,20/2/2017,"Segunda-feira, 20 de Fevereiro de 2017",2017-02-20,12,PE,PERNAMBUCO,232 ,68,-8.167699,-35.474999,461,ROUBO A CAMINHÃO,ROUBO,GRAVATA,Vítima,1,1,1
C1515501170506063100,6/5/2017,"Sábado, 6 de Maio de 2017",2017-05-06,2,PB,PARAÍBA,101 ,58,-6.982499,-35.075299,461,ROUBO A CAMINHÃO,ROUBO,SANTA RITA,Vítima,1,2,2
C1515501170506065100,6/5/2017,"Sábado, 6 de Maio de 2017",2017-05-06,2,PB,PARAÍBA,101 ,58,-6.982499,-35.075299,461,ROUBO A CAMINHÃO,ROUBO,SANTA RITA,Vítima,1,1,2
C1515599170105063800,5/1/2017,"Quinta-feira, 5 de Janeiro de 2017",2017-01-05,2,PR,PARANÁ,116 ,68,-25.326099,-49.027199,461,ROUBO A CAMINHÃO,ROUBO,QUATRO BARRAS,Vítima,1,1,1
C1515599170406021800,6/4/2017,"Quinta-feira, 6 de Abril de 2017",2017-04-06,1,PR,PARANÁ,116 ,17,-25.103499,-48.706499,461,ROUBO A CAMINHÃO,ROUBO,CAMPINA GRANDE DO SUL,Vítima,1,1,1
C1515599170406031500,5/4/2017,"Quarta-feira, 5 de Abril de 2017",2017-04-05,23,PR,PARANÁ,116 ,17,-25.103499,-48.706499,461,ROUBO A CAMINHÃO,ROUBO,CAMPINA GRANDE DO SUL,Vítima,1,1,1
C1515599170430011400,30/4/2017,"Domingo, 30 de Abril de 2017",2017-04-30,0,PR,PARANÁ,116 ,65,-25.310699,-49.006199,461,ROUBO A CAMINHÃO,ROUBO,CAMPINA GRANDE DO SUL,Vítima,1,1,1
C1515599170517034800,17/5/2017,"Quarta-feira, 17 de Maio de 2017",2017-05-17,3,PR,PARANÁ,116 ,17,-25.103499,-48.706499,461,ROUBO A CAMINHÃO,ROUBO,ANTONINA,Vítima,1,1,1
C1515599170629070700,29/6/2017,"Quinta-feira, 29 de Junho de 2017",2017-06-29,5,PR,PARANÁ,116 ,17,-25.103499,-48.706499,461,ROUBO A CAMINHÃO,ROUBO,ANTONINA,Vítima,1,1,1
C1515729170113042500,13/1/2017,"Sexta-feira, 13 de Janeiro de 2017",2017-01-13,2,PR,PARANÁ,116 ,68,-25.326099,-49.027199,461,ROUBO A CAMINHÃO,ROUBO,CAMPINA GRANDE DO SUL,Vítima,1,1,1
C1516274170122065000,22/1/2017,"Domingo, 22 de Janeiro de 2017",2017-01-22,2,CE,CEARÁ,116 ,375,-6.409599,-38.851699,461,ROUBO A CAMINHÃO,ROUBO,ICO,Vítima,1,1,1
C1516367170627160000,27/6/2017,"Terça-feira, 27 de Junho de 2017",2017-06-27,15,CE,CEARÁ,116 ,73,-4.356199,-38.460499,461,ROUBO A CAMINHÃO,ROUBO,CHOROZINHO,Testemunha,1,1,1
C1516521170331070600,31/3/2017,"Sexta-feira, 31 de Março de 2017",2017-03-31,2,RJ,RIO DE JANEIRO,116 ,317,-22.488799,-44.552699,461,ROUBO A CAMINHÃO,ROUBO,ITATIAIA,Vítima,1,1,1
C1528233170308003200,7/3/2017,"Terça-feira, 7 de Março de 2017",2017-03-07,22,AL,ALAGOAS,101 ,115,-9.646199,-36.024199,461,ROUBO A CAMINHÃO,ROUBO,SAO SEBASTIAO,Vítima,1,2,2
C1534605170609000500,8/6/2017,"Quinta-feira, 8 de Junho de 2017",2017-06-08,22,NI,Não Informado,NI,-1,-1,-1,461,ROUBO A CAMINHÃO,ROUBO,CAMPO GRANDE,Vítima,1,1,2
C1534846170123180500,23/1/2017,"Segunda-feira, 23 de Janeiro de 2017",2017-01-23,16,PE,PERNAMBUCO,232 ,4,-8.064699,-34.937299,461,ROUBO A CAMINHÃO,ROUBO,RECIFE,Vítima,1,1,2
C1534846170204090000,4/2/2017,"Sábado, 4 de Fevereiro de 2017",2017-02-04,7,PE,PERNAMBUCO,232 ,31,-8.105599,-35.159499,461,ROUBO A CAMINHÃO,ROUBO,MORENO,Vítima,1,1,3
C1535031170330230200,30/3/2017,"Quinta-feira, 30 de Março de 2017",2017-03-30,21,NI,Não Informado,NI,-1,-1,-1,461,ROUBO A CAMINHÃO,ROUBO,PONTA GROSSA,Vítima,1,1,1
C1535046170614141700,14/6/2017,"Quarta-feira, 14 de Junho de 2017",2017-06-14,4,PR,PARANÁ,376 ,638,-25.767499,-49.123899,461,ROUBO A CAMINHÃO,ROUBO,SAO JOSE DOS PINHAIS,Vítima,1,1,2
C1535469170407064700,7/4/2017,"Sexta-feira, 7 de Abril de 2017",2017-04-07,0,GO,GOIÁS,060 ,228,-17.041299,-49.779999,461,ROUBO A CAMINHÃO,ROUBO,VARJAO,Vítima,1,1,2
C1535474170220103500,20/2/2017,"Segunda-feira, 20 de Fevereiro de 2017",2017-02-20,6,SP,SÃO PAULO,381 ,32,-23.063799,-46.570499,461,ROUBO A CAMINHÃO,ROUBO,ATIBAIA,Vítima,1,1,1
C1535831170207074400,7/2/2017,"Terça-feira, 7 de Fevereiro de 2017",2017-02-07,3,BA,BAHIA,101 ,8,-11.547399,-37.864799,461,ROUBO A CAMINHÃO,ROUBO,RIO REAL,Vítima,1,1,1
C1536099170605121900,5/6/2017,"Segunda-feira, 5 de Junho de 2017",2017-06-05,12,GO,GOIÁS,153 ,620,-17.712899,-49.154899,461,ROUBO A CAMINHÃO,ROUBO,MORRINHOS,Vítima,1,1,1
C1536099170610030200,9/6/2017,"Sexta-feira, 9 de Junho de 2017",2017-06-09,21,GO,GOIÁS,060 ,45,-16.132399,-48.597699,461,ROUBO A CAMINHÃO,ROUBO,ALEXANIA,Vítima,1,1,1
C1538684170518062500,18/5/2017,"Quinta-feira, 18 de Maio de 2017",2017-05-18,3,MT,MATO GROSSO,070 ,225,-15.658499,-53.909899,461,ROUBO A CAMINHÃO,ROUBO,PRIMAVERA DO LESTE,Vítima,1,1,1
C1539265170112065500,12/1/2017,"Quinta-feira, 12 de Janeiro de 2017",2017-01-12,6,MG,MINAS GERAIS,040 ,820,-21.954399,-43.300599,461,ROUBO A CAMINHÃO,ROUBO,SIMAO PEREIRA,Vítima,1,2,1
C1539709170617034900,17/6/2017,"Sábado, 17 de Junho de 2017",2017-06-17,3,PB,PARAÍBA,101 ,51,-6.926999,-35.105899,461,ROUBO A CAMINHÃO,ROUBO,SANTA RITA,Vítima,1,1,1
C1539761170217055900,17/2/2017,"Sexta-feira, 17 de Fevereiro de 2017",2017-02-17,1,GO,GOIÁS,364 ,260,-17.667099,-52.225899,461,ROUBO A CAMINHÃO,ROUBO,JATAI,Vítima,1,1,2
C1539868170524205500,24/5/2017,"Quarta-feira, 24 de Maio de 2017",2017-05-24,18,MG,MINAS GERAIS,365 ,387,-18.626299,-46.303299,461,ROUBO A CAMINHÃO,ROUBO,PATROCINIO,Vítima,1,1,3
C1540277170514092100,14/5/2017,"Domingo, 14 de Maio de 2017",2017-05-14,2,NI,Não Informado,NI,-1,-1,-1,461,ROUBO A CAMINHÃO,ROUBO,PORTO NACIONAL,Vítima,1,2,2
C1540485170331110000,31/3/2017,"Sexta-feira, 31 de Março de 2017",2017-03-31,10,PE,PERNAMBUCO,101 ,101,-8.276599,-35.054199,461,ROUBO A CAMINHÃO,ROUBO,CABO DE SANTO AGOSTINHO,Vítima,1,2,2
C1540746170319164600,17/3/2017,"Sexta-feira, 17 de Março de 2017",2017-03-17,20,MG,MINAS GERAIS,365 ,397,-18.625599,-46.390099,461,ROUBO A CAMINHÃO,ROUBO,PATOS DE MINAS,Vítima,1,1,3
C1542364170424120000,24/4/2017,"Segunda-feira, 24 de Abril de 2017",2017-04-24,4,BA,BAHIA,110 ,70,-10.026199,-38.325599,461,ROUBO A CAMINHÃO,ROUBO,JEREMOABO,Vítima,1,1,1
C1542369170411035000,11/4/2017,"Terça-feira, 11 de Abril de 2017",2017-04-11,3,PR,PARANÁ,376 ,648,-25.842099,-49.103199,461,ROUBO A CAMINHÃO,ROUBO,TIJUCAS DO SUL,Vítima,1,1,1
C1542921170321074700,20/3/2017,"Segunda-feira, 20 de Março de 2017",2017-03-20,20,SP,SÃO PAULO,116 ,13,-22.552399,-44.813599,461,ROUBO A CAMINHÃO,ROUBO,QUELUZ,Vítima,1,2,1
C1542942170306053000,6/3/2017,"Segunda-feira, 6 de Março de 2017",2017-03-06,0,GO,GOIÁS,364 ,235,-17.801699,-52.046099,461,ROUBO A CAMINHÃO,ROUBO,JATAI,Vítima,1,1,3
C1549619170110174900,10/1/2017,"Terça-feira, 10 de Janeiro de 2017",2017-01-10,7,ES,ESPÍRITO SANTO,101 ,349,-20.667299,-40.662799,461,ROUBO A CAMINHÃO,ROUBO,ANCHIETA,Autor,1,3,2
C1549619170110174900,10/1/2017,"Terça-feira, 10 de Janeiro de 2017",2017-01-10,7,ES,ESPÍRITO SANTO,101 ,349,-20.667299,-40.662799,461,ROUBO A CAMINHÃO,ROUBO,ANCHIETA,Vítima,1,1,2
C1573346170507143000,7/5/2017,"Domingo, 7 de Maio de 2017",2017-05-07,3,AL,ALAGOAS,101 ,194,-9.938899,-36.488299,461,ROUBO A CAMINHÃO,ROUBO,SAO SEBASTIAO,Vítima,1,1,1
C1578667170126212400,26/1/2017,"Quinta-feira, 26 de Janeiro de 2017",2017-01-26,18,PE,PERNAMBUCO,316 ,314,-8.618999,-38.560199,461,ROUBO A CAMINHÃO,ROUBO,FLORESTA,Vítima,1,1,1
C1578667170407203900,7/4/2017,"Sexta-feira, 7 de Abril de 2017",2017-04-07,19,PE,PERNAMBUCO,316 ,329,-8.726799,-38.485799,461,ROUBO A CAMINHÃO,ROUBO,FLORESTA,Vítima,1,1,1
C1611285170125120800,23/1/2017,"Segunda-feira, 23 de Janeiro de 2017",2017-01-23,2,TO,TOCANTINS,153 ,572,-10.841399,-48.904499,461,ROUBO A CAMINHÃO,ROUBO,SANTA RITA DO TOCANTINS,Vítima,1,1,3
C1641771170612024800,12/6/2017,"Segunda-feira, 12 de Junho de 2017",2017-06-12,2,GO,GOIÁS,153 ,655,-18.001199,-49.262299,461,ROUBO A CAMINHÃO,ROUBO,GOIATUBA,Vítima,1,1,2
C1651320170426061200,26/4/2017,"Quarta-feira, 26 de Abril de 2017",2017-04-26,5,RJ,RIO DE JANEIRO,116 ,176,-22.759099,-43.427699,461,ROUBO A CAMINHÃO,ROUBO,NOVA IGUACU,Vítima,1,1,1
C1651320170523214900,23/5/2017,"Terça-feira, 23 de Maio de 2017",2017-05-23,21,RJ,RIO DE JANEIRO,116 ,164,-22.814499,-43.327699,461,ROUBO A CAMINHÃO,ROUBO,RIO DE JANEIRO,Vítima,1,1,1
C1655731170203035400,3/2/2017,"Sexta-feira, 3 de Fevereiro de 2017",2017-02-03,0,BA,BAHIA,110 ,13,-9.535799,-38.221499,461,ROUBO A CAMINHÃO,ROUBO,PAULO AFONSO,Autor,1,1,5
C1655731170203035400,3/2/2017,"Sexta-feira, 3 de Fevereiro de 2017",2017-02-03,0,BA,BAHIA,110 ,13,-9.535799,-38.221499,461,ROUBO A CAMINHÃO,ROUBO,PAULO AFONSO,Vítima,1,1,5
C1714794170218055800,18/2/2017,"Sábado, 18 de Fevereiro de 2017",2017-02-18,2,SP,SÃO PAULO,116 ,25,-22.604799,-44.893799,461,ROUBO A CAMINHÃO,ROUBO,LAVRINHAS,Vítima,1,1,1
C1714921170331093700,30/3/2017,"Quinta-feira, 30 de Março de 2017",2017-03-30,23,RJ,RIO DE JANEIRO,116 ,203,-22.721899,-43.677499,461,ROUBO A CAMINHÃO,ROUBO,SEROPEDICA,Vítima,1,1,5
C1714968170325003000,24/3/2017,"Sexta-feira, 24 de Março de 2017",2017-03-24,23,PR,PARANÁ,376 ,667,-25.865799,-48.942699,461,ROUBO A CAMINHÃO,ROUBO,GUARATUBA,Vítima,1,1,1
C1715183170614104000,14/6/2017,"Quarta-feira, 14 de Junho de 2017",2017-06-14,1,RJ,RIO DE JANEIRO,116 ,192,-22.729899,-43.572299,461,ROUBO A CAMINHÃO,ROUBO,QUEIMADOS,Vítima,1,1,1
C1715203170420090000,18/4/2017,"Terça-feira, 18 de Abril de 2017",2017-04-18,19,SP,SÃO PAULO,116 ,159,-23.264799,-45.958099,461,ROUBO A CAMINHÃO,ROUBO,JACAREI,Vítima,1,1,1
C1715880170630053400,30/6/2017,"Sexta-feira, 30 de Junho de 2017",2017-06-30,4,PR,PARANÁ,116 ,19,-25.101599,-48.726499,461,ROUBO A CAMINHÃO,ROUBO,CAMPINA GRANDE DO SUL,Vítima,1,1,1
C1715890170210220000,10/2/2017,"Sexta-feira, 10 de Fevereiro de 2017",2017-02-10,20,PR,PARANÁ,116 ,107,-25.568399,-49.232399,461,ROUBO A CAMINHÃO,ROUBO,SAO JOSE DOS PINHAIS,Vítima,1,1,2
C1716810170523043200,23/5/2017,"Terça-feira, 23 de Maio de 2017",2017-05-23,4,RJ,RIO DE JANEIRO,465 ,1,-22.720999,-43.724599,461,ROUBO A CAMINHÃO,ROUBO,SEROPEDICA,Vítima,1,1,1
C1716838170612090700,9/6/2017,"Sexta-feira, 9 de Junho de 2017",2017-06-09,7,RJ,RIO DE JANEIRO,116 ,222,-22.660699,-43.827899,461,ROUBO A CAMINHÃO,ROUBO,PIRAI,Vítima,1,1,2
C1777279170518144900,18/5/2017,"Quinta-feira, 18 de Maio de 2017",2017-05-18,13,PE,PERNAMBUCO,316 ,235,-8.578799,-39.165999,461,ROUBO A CAMINHÃO,ROUBO,BELEM DE SAO FRANCISCO,Vítima,1,2,1
C1777529170301061900,1/3/2017,"Quarta-feira, 1 de Março de 2017",2017-03-01,5,SP,SÃO PAULO,116 ,169,-23.307699,-46.044499,461,ROUBO A CAMINHÃO,ROUBO,JACAREI,Vítima,1,1,2
C1777529170612203800,12/6/2017,"Segunda-feira, 12 de Junho de 2017",2017-06-12,19,SP,SÃO PAULO,116 ,169,-23.307699,-46.044499,461,ROUBO A CAMINHÃO,ROUBO,JACAREI,Vítima,1,1,1
C1818932170202185300,2/2/2017,"Quinta-feira, 2 de Fevereiro de 2017",2017-02-02,1,BA,BAHIA,110 ,58,-9.930799,-38.288699,461,ROUBO A CAMINHÃO,ROUBO,JEREMOABO,Vítima,1,1,0
C1865050170103112300,3/1/2017,"Terça-feira, 3 de Janeiro de 2017",2017-01-03,10,RJ,RIO DE JANEIRO,040 ,95,-22.572299,-43.258299,461,ROUBO A CAMINHÃO,ROUBO,DUQUE DE CAXIAS,Vítima,1,1,1
C1880320170214130000,13/2/2017,"Segunda-feira, 13 de Fevereiro de 2017",2017-02-13,12,GO,GOIÁS,153 ,409,-16.096799,-49.033199,461,ROUBO A CAMINHÃO,ROUBO,PIRENOPOLIS,Vítima,1,1,1
C1969336170215130000,14/2/2017,"Terça-feira, 14 de Fevereiro de 2017",2017-02-14,12,PE,PERNAMBUCO,232 ,429,-8.001699,-38.434999,461,ROUBO A CAMINHÃO,ROUBO,SERRA TALHADA,Vítima,1,1,1
C1969363170507200500,6/5/2017,"Sábado, 6 de Maio de 2017",2017-05-06,21,TO,TOCANTINS,153 ,430,-9.659199,-48.644699,461,ROUBO A CAMINHÃO,ROUBO,BARROLANDIA,Vítima,1,1,1
C1969370170316111800,16/3/2017,"Quinta-feira, 16 de Março de 2017",2017-03-16,1,NI,Não Informado,NI,-1,-1,-1,461,ROUBO A CAMINHÃO,ROUBO,BARROLANDIA,Vítima,1,1,3
C1969378170317030000,17/3/2017,"Sexta-feira, 17 de Março de 2017",2017-03-17,0,TO,TOCANTINS,153 ,647,-11.503199,-49.007799,461,ROUBO A CAMINHÃO,ROUBO,GURUPI,Vítima,1,1,1
C1969385170505100500,5/5/2017,"Sexta-feira, 5 de Maio de 2017",2017-05-05,9,SP,SÃO PAULO,116 ,387,-24.265599,-47.389299,461,ROUBO A CAMINHÃO,ROUBO,MIRACATU,Vítima,1,1,3
C1969414170603103400,29/5/2017,"Segunda-feira, 29 de Maio de 2017",2017-05-29,22,NI,Não Informado,NI,-1,-1,-1,461,ROUBO A CAMINHÃO,ROUBO,SANTA ISABEL,Testemunha,1,1,2
C1969414170603103400,29/5/2017,"Segunda-feira, 29 de Maio de 2017",2017-05-29,22,NI,Não Informado,NI,-1,-1,-1,461,ROUBO A CAMINHÃO,ROUBO,SANTA ISABEL,Vítima,1,1,2
C1969420170625200700,13/6/2017,"Terça-feira, 13 de Junho de 2017",2017-06-13,20,SP,SÃO PAULO,116 ,228,-23.504599,-46.567899,461,ROUBO A CAMINHÃO,ROUBO,SAO PAULO,Vítima,1,1,1
C1969475170309024300,8/3/2017,"Quarta-feira, 8 de Março de 2017",2017-03-08,20,SP,SÃO PAULO,116 ,29,-22.627499,-44.921599,461,ROUBO A CAMINHÃO,ROUBO,CRUZEIRO,Vítima,1,2,3
C1969484170115093000,15/1/2017,"Domingo, 15 de Janeiro de 2017",2017-01-15,5,SP,SÃO PAULO,116 ,374,-24.177299,-47.347899,461,ROUBO A CAMINHÃO,ROUBO,MIRACATU,Autor,1,1,4
C1969484170115093000,15/1/2017,"Domingo, 15 de Janeiro de 2017",2017-01-15,5,SP,SÃO PAULO,116 ,374,-24.177299,-47.347899,461,ROUBO A CAMINHÃO,ROUBO,MIRACATU,Vítima,1,2,4
C1969524170626142400,26/6/2017,"Segunda-feira, 26 de Junho de 2017",2017-06-26,12,RJ,RIO DE JANEIRO,393 ,185,-22.155999,-43.307599,461,ROUBO A CAMINHÃO,ROUBO,PARAIBA DO SUL,Vítima,1,1,1
C1969610170221132100,20/2/2017,"Segunda-feira, 20 de Fevereiro de 2017",2017-02-20,21,PE,PERNAMBUCO,316 ,82,-7.873899,-40.087199,461,ROUBO A CAMINHÃO,ROUBO,OURICURI,Vítima,1,1,3
C1969610170518090000,18/5/2017,"Quinta-feira, 18 de Maio de 2017",2017-05-18,0,NI,Não Informado,NI,-1,-1,-1,461,ROUBO A CAMINHÃO,ROUBO,OURICURI,Vítima,1,1,1
C1969672170504040600,3/5/2017,"Quarta-feira, 3 de Maio de 2017",2017-05-03,20,SP,SÃO PAULO,381 ,76,-23.386399,-46.566999,461,ROUBO A CAMINHÃO,ROUBO,SAO PAULO,Vítima,1,1,1
C1969691170617224000,17/6/2017,"Sábado, 17 de Junho de 2017",2017-06-17,21,RJ,RIO DE JANEIRO,393 ,284,-22.494799,-44.068499,461,ROUBO A CAMINHÃO,ROUBO,VOLTA REDONDA,Autor,1,1,2
C1969691170617224000,17/6/2017,"Sábado, 17 de Junho de 2017",2017-06-17,21,RJ,RIO DE JANEIRO,393 ,284,-22.494799,-44.068499,461,ROUBO A CAMINHÃO,ROUBO,VOLTA REDONDA,Vítima,1,1,2
C1969699170530233000,30/5/2017,"Terça-feira, 30 de Maio de 2017",2017-05-30,21,RJ,RIO DE JANEIRO,116 ,203,-22.721899,-43.677499,461,ROUBO A CAMINHÃO,ROUBO,SEROPEDICA,Vítima,1,2,2
C1969699170607130000,6/6/2017,"Terça-feira, 6 de Junho de 2017",2017-06-06,21,RJ,RIO DE JANEIRO,116 ,190,-22.734799,-43.554599,461,ROUBO A CAMINHÃO,ROUBO,QUEIMADOS,Vítima,1,1,2
C1969924170616215000,16/6/2017,"Sexta-feira, 16 de Junho de 2017",2017-06-16,21,PB,PARAÍBA,101 ,51,-6.926999,-35.105899,461,ROUBO A CAMINHÃO,ROUBO,MAMANGUAPE,Vítima,1,1,1
C1969924170617001200,16/6/2017,"Sexta-feira, 16 de Junho de 2017",2017-06-16,23,PB,PARAÍBA,101 ,52,-6.934999,-35.101399,461,ROUBO A CAMINHÃO,ROUBO,MAMANGUAPE,Vítima,1,2,2
C1970047170203111800,3/2/2017,"Sexta-feira, 3 de Fevereiro de 2017",2017-02-03,10,PR,PARANÁ,373 ,183,-25.040899,-50.270199,461,ROUBO A CAMINHÃO,ROUBO,PONTA GROSSA,Vítima,1,1,3
C1970047170310081400,10/3/2017,"Sexta-feira, 10 de Março de 2017",2017-03-10,7,PR,PARANÁ,376 ,444,-24.842599,-50.474999,461,ROUBO A CAMINHÃO,ROUBO,TIBAGI,Vítima,1,1,2
C1970079170210123600,10/2/2017,"Sexta-feira, 10 de Fevereiro de 2017",2017-02-10,12,PR,PARANÁ,376 ,599,-25.513499,-49.337799,461,ROUBO A CAMINHÃO,ROUBO,CURITIBA,Vítima,1,1,1
C1970079170506023400,6/5/2017,"Sábado, 6 de Maio de 2017",2017-05-06,1,PR,PARANÁ,376 ,674,-25.911399,-48.920199,461,ROUBO A CAMINHÃO,ROUBO,GUARATUBA,Envolvido,1,1,1
C1970079170506023400,6/5/2017,"Sábado, 6 de Maio de 2017",2017-05-06,1,PR,PARANÁ,376 ,674,-25.911399,-48.920199,461,ROUBO A CAMINHÃO,ROUBO,GUARATUBA,Vítima,1,1,1
C1970086170616233100,16/6/2017,"Sexta-feira, 16 de Junho de 2017",2017-06-16,23,PB,PARAÍBA,101 ,52,-6.934999,-35.101399,461,ROUBO A CAMINHÃO,ROUBO,MAMANGUAPE,Vítima,1,2,1
C1970199170102224800,2/1/2017,"Segunda-feira, 2 de Janeiro de 2017",2017-01-02,21,PR,PARANÁ,116 ,68,-25.326099,-49.027199,461,ROUBO A CAMINHÃO,ROUBO,CAMPINA GRANDE DO SUL,Vítima,1,1,2
C1970199170523194000,23/5/2017,"Terça-feira, 23 de Maio de 2017",2017-05-23,19,PR,PARANÁ,116 ,47,-25.213799,-48.900499,461,ROUBO A CAMINHÃO,ROUBO,CAMPINA GRANDE DO SUL,Vítima,1,1,1
C1970199170531074500,31/5/2017,"Quarta-feira, 31 de Maio de 2017",2017-05-31,0,PR,PARANÁ,116 ,12,-25.098099,-48.661199,461,ROUBO A CAMINHÃO,ROUBO,CAMPINA GRANDE DO SUL,Vítima,1,1,1
C1970255170213070800,13/2/2017,"Segunda-feira, 13 de Fevereiro de 2017",2017-02-13,6,SP,SÃO PAULO,116 ,361,-24.117899,-47.266999,461,ROUBO A CAMINHÃO,ROUBO,MIRACATU,Vítima,1,1,1
C1970358170407031700,7/4/2017,"Sexta-feira, 7 de Abril de 2017",2017-04-07,1,SC,SANTA CATARINA,101 ,326,-28.424399,-48.937399,461,ROUBO A CAMINHÃO,ROUBO,CAPIVARI DE BAIXO,Vítima,1,1,1
C1970369170416034200,16/4/2017,"Domingo, 16 de Abril de 2017",2017-04-16,0,PR,PARANÁ,116 ,27,-25.109899,-48.798799,461,ROUBO A CAMINHÃO,ROUBO,CAMPINA GRANDE DO SUL,Vítima,1,1,1
C1970397170316225400,16/3/2017,"Quinta-feira, 16 de Março de 2017",2017-03-16,21,PR,PARANÁ,376 ,615,-25.570399,-49.181399,461,ROUBO A CAMINHÃO,ROUBO,SAO JOSE DOS PINHAIS,Vítima,1,1,1
C1970537170410004600,9/4/2017,"Domingo, 9 de Abril de 2017",2017-04-09,23,PR,PARANÁ,376 ,653,-25.842199,-49.057299,461,ROUBO A CAMINHÃO,ROUBO,TIJUCAS DO SUL,Vítima,1,1,1
C1970616170321163900,21/3/2017,"Terça-feira, 21 de Março de 2017",2017-03-21,16,NI,Não Informado,NI,-1,-1,-1,461,ROUBO A CAMINHÃO,ROUBO,MORRINHOS,Vítima,1,1,1
C1970666170304185000,4/3/2017,"Sábado, 4 de Março de 2017",2017-03-04,18,NI,Não Informado,NI,-1,-1,-1,461,ROUBO A CAMINHÃO,ROUBO,DELMIRO GOUVEIA,Autor,1,1,1
C1970666170304185000,4/3/2017,"Sábado, 4 de Março de 2017",2017-03-04,18,NI,Não Informado,NI,-1,-1,-1,461,ROUBO A CAMINHÃO,ROUBO,DELMIRO GOUVEIA,Vítima,1,1,1
C1970801170404091000,4/4/2017,"Terça-feira, 4 de Abril de 2017",2017-04-04,9,RJ,RIO DE JANEIRO,116 ,267,-22.560899,-44.137899,461,ROUBO A CAMINHÃO,ROUBO,BARRA MANSA,Autor,1,1,1
C1970801170404091000,4/4/2017,"Terça-feira, 4 de Abril de 2017",2017-04-04,9,RJ,RIO DE JANEIRO,116 ,267,-22.560899,-44.137899,461,ROUBO A CAMINHÃO,ROUBO,BARRA MANSA,Vítima,1,1,1
C1970875170609020700,9/6/2017,"Sexta-feira, 9 de Junho de 2017",2017-06-09,0,PR,PARANÁ,116 ,47,-25.213799,-48.900499,461,ROUBO A CAMINHÃO,ROUBO,CAMPINA GRANDE DO SUL,Autor,1,2,1
C1970875170609020700,9/6/2017,"Sexta-feira, 9 de Junho de 2017",2017-06-09,0,PR,PARANÁ,116 ,47,-25.213799,-48.900499,461,ROUBO A CAMINHÃO,ROUBO,CAMPINA GRANDE DO SUL,Vítima,1,2,1
C1971019170414090300,14/4/2017,"Sexta-feira, 14 de Abril de 2017",2017-04-14,1,SC,SANTA CATARINA,101 ,3,-26.003999,-48.872199,461,ROUBO A CAMINHÃO,ROUBO,GARUVA,Vítima,1,1,1
C1971033170104015200,4/1/2017,"Quarta-feira, 4 de Janeiro de 2017",2017-01-04,1,PR,PARANÁ,376 ,651,-25.844999,-49.074699,461,ROUBO A CAMINHÃO,ROUBO,TIJUCAS DO SUL,Vítima,1,1,1
C1971033170104021400,4/1/2017,"Quarta-feira, 4 de Janeiro de 2017",2017-01-04,1,PR,PARANÁ,376 ,651,-25.844999,-49.074699,461,ROUBO A CAMINHÃO,ROUBO,TIJUCAS DO SUL,Vítima,1,1,1
C1971033170124030800,24/1/2017,"Terça-feira, 24 de Janeiro de 2017",2017-01-24,2,PR,PARANÁ,376 ,627,-25.672899,-49.151299,461,ROUBO A CAMINHÃO,ROUBO,SAO JOSE DOS PINHAIS,Vítima,1,1,1
C1971033170127004500,27/1/2017,"Sexta-feira, 27 de Janeiro de 2017",2017-01-27,0,SC,SANTA CATARINA,101 ,5,-26.017799,-48.862299,461,ROUBO A CAMINHÃO,ROUBO,JOINVILLE,Vítima,1,1,1
C1971342170319064100,18/3/2017,"Sábado, 18 de Março de 2017",2017-03-18,19,CE,CEARÁ,222 ,179,-3.747499,-40.039299,461,ROUBO A CAMINHÃO,ROUBO,SOBRAL,Vítima,1,2,2
C1971355170211082900,10/2/2017,"Sexta-feira, 10 de Fevereiro de 2017",2017-02-10,22,RJ,RIO DE JANEIRO,116 ,207,-22.716199,-43.715799,461,ROUBO A CAMINHÃO,ROUBO,SEROPEDICA,Coautor,1,2,1
C1971355170211082900,10/2/2017,"Sexta-feira, 10 de Fevereiro de 2017",2017-02-10,22,RJ,RIO DE JANEIRO,116 ,207,-22.716199,-43.715799,461,ROUBO A CAMINHÃO,ROUBO,SEROPEDICA,Vítima,1,1,1
C1972097170412225600,12/4/2017,"Quarta-feira, 12 de Abril de 2017",2017-04-12,18,PR,PARANÁ,116 ,102,-25.569299,-49.182699,461,ROUBO A CAMINHÃO,ROUBO,SAO JOSE DOS PINHAIS,Vítima,1,1,2
C1972239170408144500,8/4/2017,"Sábado, 8 de Abril de 2017",2017-04-08,14,PB,PARAÍBA,101 ,1,-6.513799,-35.111299,461,ROUBO A CAMINHÃO,ROUBO,MATARACA,Vítima,1,1,1
C1973050170424192800,18/2/2017,"Sábado, 18 de Fevereiro de 2017",2017-02-18,2,PE,PERNAMBUCO,316 ,44,-7.684399,-40.362999,461,ROUBO A CAMINHÃO,ROUBO,TRINDADE,Vítima,1,1,1
C1974175170619173700,19/6/2017,"Segunda-feira, 19 de Junho de 2017",2017-06-19,17,SE,SERGIPE,101 ,205,-11.512599,-37.793199,461,ROUBO A CAMINHÃO,ROUBO,CRISTINAPOLIS,Vítima,1,1,2
C1974987170223023900,23/2/2017,"Quinta-feira, 23 de Fevereiro de 2017",2017-02-23,2,PR,PARANÁ,376 ,647,-25.835399,-49.109199,461,ROUBO A CAMINHÃO,ROUBO,TIJUCAS DO SUL,Vítima,1,1,2
C1974987170526043900,26/5/2017,"Sexta-feira, 26 de Maio de 2017",2017-05-26,4,SC,SANTA CATARINA,101 ,3,-26.003999,-48.872199,461,ROUBO A CAMINHÃO,ROUBO,GARUVA,Vítima,1,1,1
C1985705170402055200,2/4/2017,"Domingo, 2 de Abril de 2017",2017-04-02,5,SP,SÃO PAULO,116 ,551,-24.966399,-48.474999,461,ROUBO A CAMINHÃO,ROUBO,BARRA DO TURVO,Vítima,1,1,1
C1985710170418074400,17/4/2017,"Segunda-feira, 17 de Abril de 2017",2017-04-17,19,RJ,RIO DE JANEIRO,116 ,207,-22.716199,-43.715799,461,ROUBO A CAMINHÃO,ROUBO,SEROPEDICA,Vítima,1,1,1
C1985803170510065300,9/5/2017,"Terça-feira, 9 de Maio de 2017",2017-05-09,23,SP,SÃO PAULO,116 ,218,-23.459699,-46.484299,461,ROUBO A CAMINHÃO,ROUBO,GUARULHOS,Vítima,1,1,1
C1985827170213093800,13/2/2017,"Segunda-feira, 13 de Fevereiro de 2017",2017-02-13,4,SP,SÃO PAULO,116 ,362,-24.122899,-47.271499,461,ROUBO A CAMINHÃO,ROUBO,MIRACATU,Autor,1,1,1
C1985827170213093800,13/2/2017,"Segunda-feira, 13 de Fevereiro de 2017",2017-02-13,4,SP,SÃO PAULO,116 ,362,-24.122899,-47.271499,461,ROUBO A CAMINHÃO,ROUBO,MIRACATU,Vítima,1,1,1
C1986033170404074900,4/4/2017,"Terça-feira, 4 de Abril de 2017",2017-04-04,3,SP,SÃO PAULO,381 ,69,-23.346199,-46.565599,461,ROUBO A CAMINHÃO,ROUBO,MAIRIPORA,Vítima,1,1,1
C1986058170504235800,4/5/2017,"Quinta-feira, 4 de Maio de 2017",2017-05-04,21,SP,SÃO PAULO,116 ,179,-23.331299,-46.135199,461,ROUBO A CAMINHÃO,ROUBO,JACAREI,Vítima,1,1,2
C1986058170531021400,30/5/2017,"Terça-feira, 30 de Maio de 2017",2017-05-30,18,SP,SÃO PAULO,116 ,167,-23.302199,-46.024899,461,ROUBO A CAMINHÃO,ROUBO,JACAREI,Vítima,1,1,2
C1986074170306213400,6/3/2017,"Segunda-feira, 6 de Março de 2017",2017-03-06,16,SP,SÃO PAULO,116 ,200,-23.402799,-46.319799,461,ROUBO A CAMINHÃO,ROUBO,ARUJA,Vítima,1,1,1
C1986074170427010200,26/4/2017,"Quarta-feira, 26 de Abril de 2017",2017-04-26,16,SP,SÃO PAULO,116 ,186,-23.351999,-46.198999,461,ROUBO A CAMINHÃO,ROUBO,SANTA ISABEL,Autor,1,1,2
C1986074170427010200,26/4/2017,"Quarta-feira, 26 de Abril de 2017",2017-04-26,16,SP,SÃO PAULO,116 ,186,-23.351999,-46.198999,461,ROUBO A CAMINHÃO,ROUBO,SANTA ISABEL,Coautor,1,1,2
C1986074170427010200,26/4/2017,"Quarta-feira, 26 de Abril de 2017",2017-04-26,16,SP,SÃO PAULO,116 ,186,-23.351999,-46.198999,461,ROUBO A CAMINHÃO,ROUBO,SANTA ISABEL,Vítima,1,1,2
C1986074170518234200,18/5/2017,"Quinta-feira, 18 de Maio de 2017",2017-05-18,15,SP,SÃO PAULO,116 ,204,-23.412299,-46.356699,461,ROUBO A CAMINHÃO,ROUBO,ARUJA,Vítima,1,2,2
C1986074170523012900,22/5/2017,"Segunda-feira, 22 de Maio de 2017",2017-05-22,18,NI,Não Informado,NI,-1,-1,-1,461,ROUBO A CAMINHÃO,ROUBO,GUARULHOS,Autor,1,1,3
C1986074170523012900,22/5/2017,"Segunda-feira, 22 de Maio de 2017",2017-05-22,18,NI,Não Informado,NI,-1,-1,-1,461,ROUBO A CAMINHÃO,ROUBO,GUARULHOS,Coautor,1,1,3
C1986074170523012900,22/5/2017,"Segunda-feira, 22 de Maio de 2017",2017-05-22,18,NI,Não Informado,NI,-1,-1,-1,461,ROUBO A CAMINHÃO,ROUBO,GUARULHOS,Vítima,1,1,3
C1986074170613112700,12/6/2017,"Segunda-feira, 12 de Junho de 2017",2017-06-12,23,SP,SÃO PAULO,116 ,201,-23.403499,-46.330499,461,ROUBO A CAMINHÃO,ROUBO,ARUJA,Vítima,1,1,1
C1986552170107010300,7/1/2017,"Sábado, 7 de Janeiro de 2017",2017-01-07,1,RJ,RIO DE JANEIRO,116 ,190,-22.734799,-43.554599,461,ROUBO A CAMINHÃO,ROUBO,QUEIMADOS,Vítima,1,2,1
C1989160170320201000,20/3/2017,"Segunda-feira, 20 de Março de 2017",2017-03-20,19,PR,PARANÁ,116 ,108,-25.567099,-49.238899,461,ROUBO A CAMINHÃO,ROUBO,SAO JOSE DOS PINHAIS,Vítima,1,1,1
C1989160170504040100,26/4/2017,"Quarta-feira, 26 de Abril de 2017",2017-04-26,4,PR,PARANÁ,376 ,660,-25.852899,-49.000699,461,ROUBO A CAMINHÃO,ROUBO,TIJUCAS DO SUL,Vítima,1,1,1
C1989171170128080900,28/1/2017,"Sábado, 28 de Janeiro de 2017",2017-01-28,2,CE,CEARÁ,116 ,114,-4.599399,-38.203999,461,ROUBO A CAMINHÃO,ROUBO,RUSSAS,Vítima,1,1,3
C1989171170128084500,28/1/2017,"Sábado, 28 de Janeiro de 2017",2017-01-28,2,CE,CEARÁ,116 ,113,-4.592999,-38.210399,461,ROUBO A CAMINHÃO,ROUBO,RUSSAS,Vítima,1,1,3
C1989239170201100700,31/1/2017,"Terça-feira, 31 de Janeiro de 2017",2017-01-31,0,BA,BAHIA,110 ,78,-10.084199,-38.327699,461,ROUBO A CAMINHÃO,ROUBO,JEREMOABO,Vítima,1,1,2
C1989355170325183700,25/3/2017,"Sábado, 25 de Março de 2017",2017-03-25,18,PE,PERNAMBUCO,232 ,435,-8.004199,-38.488199,461,ROUBO A CAMINHÃO,ROUBO,SERRA TALHADA,Vítima,1,1,1
C1989355170404114200,4/4/2017,"Terça-feira, 4 de Abril de 2017",2017-04-04,11,PE,PERNAMBUCO,232 ,485,-8.009399,-38.907899,461,ROUBO A CAMINHÃO,ROUBO,VERDEJANTE,Vítima,1,1,2
C1989976170326195800,26/3/2017,"Domingo, 26 de Março de 2017",2017-03-26,19,AL,ALAGOAS,316 ,175,-9.554899,-36.513399,461,ROUBO A CAMINHÃO,ROUBO,BELEM,Vítima,1,1,1
C1990226170408220000,8/4/2017,"Sábado, 8 de Abril de 2017",2017-04-08,20,PR,PARANÁ,116 ,42,-25.179199,-48.880299,461,ROUBO A CAMINHÃO,ROUBO,CAMPINA GRANDE DO SUL,Vítima,1,1,1
C1990226170630061500,30/6/2017,"Sexta-feira, 30 de Junho de 2017",2017-06-30,5,PR,PARANÁ,116 ,17,-25.103499,-48.706499,461,ROUBO A CAMINHÃO,ROUBO,CAMPINA GRANDE DO SUL,Vítima,1,1,1
C1990324170517045500,17/5/2017,"Quarta-feira, 17 de Maio de 2017",2017-05-17,3,PR,PARANÁ,116 ,17,-25.103499,-48.706499,461,ROUBO A CAMINHÃO,ROUBO,ANGULO,Vítima,1,1,1
C1990324170517051200,17/5/2017,"Quarta-feira, 17 de Maio de 2017",2017-05-17,4,PR,PARANÁ,116 ,12,-25.098099,-48.661199,461,ROUBO A CAMINHÃO,ROUBO,CAMPINA GRANDE DO SUL,Vítima,1,1,1
C1990324170517053800,17/5/2017,"Quarta-feira, 17 de Maio de 2017",2017-05-17,4,PR,PARANÁ,116 ,12,-25.098099,-48.661199,461,ROUBO A CAMINHÃO,ROUBO,CAMPINA GRANDE DO SUL,Vítima,1,1,1
C1990324170517061600,17/5/2017,"Quarta-feira, 17 de Maio de 2017",2017-05-17,3,PR,PARANÁ,116 ,17,-25.103499,-48.706499,461,ROUBO A CAMINHÃO,ROUBO,ANTONINA,Vítima,1,1,1
C1990324170525082000,25/5/2017,"Quinta-feira, 25 de Maio de 2017",2017-05-25,4,PR,PARANÁ,116 ,12,-25.098099,-48.661199,461,ROUBO A CAMINHÃO,ROUBO,CAMPINA GRANDE DO SUL,Vítima,1,1,1
C1990428170428010500,28/4/2017,"Sexta-feira, 28 de Abril de 2017",2017-04-28,0,PR,PARANÁ,116 ,62,-25.307499,-48.978499,461,ROUBO A CAMINHÃO,ROUBO,CAMPINA GRANDE DO SUL,Vítima,1,1,1
C1990514170626054000,26/6/2017,"Segunda-feira, 26 de Junho de 2017",2017-06-26,3,PR,PARANÁ,376 ,273,-23.765199,-51.272299,461,ROUBO A CAMINHÃO,ROUBO,MARILANDIA DO SUL,Autor,1,2,2
C1991474170125192500,25/1/2017,"Quarta-feira, 25 de Janeiro de 2017",2017-01-25,3,NI,Não Informado,NI,-1,-1,-1,461,ROUBO A CAMINHÃO,ROUBO,JATAI,Vítima,1,1,1
C1992073170520080000,20/5/2017,"Sábado, 20 de Maio de 2017",2017-05-20,7,TO,TOCANTINS,153 ,456,-9.869599,-48.724699,461,ROUBO A CAMINHÃO,ROUBO,BARROLANDIA,Vítima,1,1,3
C1994333170213091500,13/2/2017,"Segunda-feira, 13 de Fevereiro de 2017",2017-02-13,2,MA,MARANHÃO,010 ,144,-6.461499,-47.396599,461,ROUBO A CAMINHÃO,ROUBO,PORTO FRANCO,Vítima,1,2,1
C1995769170204151900,4/2/2017,"Sábado, 4 de Fevereiro de 2017",2017-02-04,1,NI,Não Informado,NI,-1,-1,-1,461,ROUBO A CAMINHÃO,ROUBO,LAJES,Vítima,1,1,3
C2150617170217045000,17/2/2017,"Sexta-feira, 17 de Fevereiro de 2017",2017-02-17,3,SP,SÃO PAULO,116 ,294,-23.750299,-46.901199,461,ROUBO A CAMINHÃO,ROUBO,ITAPECERICA DA SERRA,Autor,1,1,1
C2150617170217045000,17/2/2017,"Sexta-feira, 17 de Fevereiro de 2017",2017-02-17,3,SP,SÃO PAULO,116 ,294,-23.750299,-46.901199,461,ROUBO A CAMINHÃO,ROUBO,ITAPECERICA DA SERRA,Vítima,1,1,1
C2150635170302105300,2/3/2017,"Quinta-feira, 2 de Março de 2017",2017-03-02,6,NI,Não Informado,NI,-1,-1,-1,461,ROUBO A CAMINHÃO,ROUBO,SANTA HELENA DE GOIAS,Vítima,1,1,1
C2151514170325100000,24/3/2017,"Sexta-feira, 24 de Março de 2017",2017-03-24,3,NI,Não Informado,NI,-1,-1,-1,461,ROUBO A CAMINHÃO,ROUBO,URUACU,Vítima,1,1,2
C2151514170329123200,25/3/2017,"Sábado, 25 de Março de 2017",2017-03-25,22,GO,GOIÁS,153 ,200,-14.520899,-49.156199,461,ROUBO A CAMINHÃO,ROUBO,URUACU,Vítima,1,2,1
C2151718170609182000,9/6/2017,"Sexta-feira, 9 de Junho de 2017",2017-06-09,17,SP,SÃO PAULO,116 ,511,-24.843199,-48.212099,461,ROUBO A CAMINHÃO,ROUBO,CAJATI,Vítima,1,1,1
C2152855170118184600,18/1/2017,"Quarta-feira, 18 de Janeiro de 2017",2017-01-18,18,PI,PIAUÍ,343 ,553,-6.593299,-42.804999,461,ROUBO A CAMINHÃO,ROUBO,FRANCISCO AYRES,Vítima,1,1,2
C2153064170315105200,15/3/2017,"Quarta-feira, 15 de Março de 2017",2017-03-15,1,PR,PARANÁ,376 ,646,-25.829799,-49.116799,461,ROUBO A CAMINHÃO,ROUBO,TIJUCAS DO SUL,Vítima,1,1,3
C2153479170609020200,8/6/2017,"Quinta-feira, 8 de Junho de 2017",2017-06-08,21,PR,PARANÁ,116 ,47,-25.213799,-48.900499,461,ROUBO A CAMINHÃO,ROUBO,CAMPINA GRANDE DO SUL,Vítima,1,1,0
C2153858170519144100,19/5/2017,"Sexta-feira, 19 de Maio de 2017",2017-05-19,12,GO,GOIÁS,153 ,385,-15.947099,-49.190399,461,ROUBO A CAMINHÃO,ROUBO,SAO FRANCISCO DE GOIAS,Vítima,1,1,2
C2153999170627223500,27/6/2017,"Terça-feira, 27 de Junho de 2017",2017-06-27,22,PR,PARANÁ,116 ,26,-25.107699,-48.787999,461,ROUBO A CAMINHÃO,ROUBO,CAMPINA GRANDE DO SUL,Vítima,1,1,2
C2154650170227052300,27/2/2017,"Segunda-feira, 27 de Fevereiro de 2017",2017-02-27,2,PR,PARANÁ,116 ,68,-25.326099,-49.027199,461,ROUBO A CAMINHÃO,ROUBO,QUATRO BARRAS,Vítima,1,1,2
C2154963170310034500,10/3/2017,"Sexta-feira, 10 de Março de 2017",2017-03-10,2,PR,PARANÁ,116 ,34,-25.120799,-48.855199,461,ROUBO A CAMINHÃO,ROUBO,CAMPINA GRANDE DO SUL,Vítima,1,1,1
C2154963170322061800,22/3/2017,"Quarta-feira, 22 de Março de 2017",2017-03-22,3,PR,PARANÁ,116 ,17,-25.103499,-48.706499,461,ROUBO A CAMINHÃO,ROUBO,ANTONINA,Vítima,1,1,1
C2154963170513042500,13/5/2017,"Sábado, 13 de Maio de 2017",2017-05-13,2,PR,PARANÁ,116 ,17,-25.103499,-48.706499,461,ROUBO A CAMINHÃO,ROUBO,ANTONINA,Vítima,1,1,1
C2154963170513051700,13/5/2017,"Sábado, 13 de Maio de 2017",2017-05-13,3,NI,Não Informado,NI,-1,-1,-1,461,ROUBO A CAMINHÃO,ROUBO,CAMPINA GRANDE DO SUL,Vítima,1,1,1
C2154977170109221000,9/1/2017,"Segunda-feira, 9 de Janeiro de 2017",2017-01-09,22,PR,PARANÁ,277 ,125,-25.452199,-49.589699,461,ROUBO A CAMINHÃO,ROUBO,BALSA NOVA,Vítima,1,1,1
C2154977170126050200,26/1/2017,"Quinta-feira, 26 de Janeiro de 2017",2017-01-26,3,PR,PARANÁ,277 ,130,-25.456299,-49.634299,461,ROUBO A CAMINHÃO,ROUBO,BALSA NOVA,Vítima,1,1,1
C2157202170121094800,21/1/2017,"Sábado, 21 de Janeiro de 2017",2017-01-21,6,NI,Não Informado,NI,-1,-1,-1,461,ROUBO A CAMINHÃO,ROUBO,BARRA DO TURVO,Vítima,1,1,0
C2160217170120035200,20/1/2017,"Sexta-feira, 20 de Janeiro de 2017",2017-01-20,3,GO,GOIÁS,153 ,241,-14.847099,-49.314599,461,ROUBO A CAMINHÃO,ROUBO,SAO LUIZ DO NORTE,Vítima,1,3,3
C2164027170316113300,15/3/2017,"Quarta-feira, 15 de Março de 2017",2017-03-15,2,GO,GOIÁS,153 ,81,-13.519599,-49.118099,461,ROUBO A CAMINHÃO,ROUBO,PORANGATU,Vítima,1,1,1
C2194072170211105200,11/2/2017,"Sábado, 11 de Fevereiro de 2017",2017-02-11,2,PE,PERNAMBUCO,116 ,32,-8.120399,-39.119699,461,ROUBO A CAMINHÃO,ROUBO,SALGUEIRO,Vítima,1,3,1
C2194195170204185000,4/2/2017,"Sábado, 4 de Fevereiro de 2017",2017-02-04,14,AC,ACRE,364 ,122,-10.011899,-67.772599,461,ROUBO A CAMINHÃO,ROUBO,RIO BRANCO,Envolvido,1,1,1
C2194195170204185000,4/2/2017,"Sábado, 4 de Fevereiro de 2017",2017-02-04,14,AC,ACRE,364 ,122,-10.011899,-67.772599,461,ROUBO A CAMINHÃO,ROUBO,RIO BRANCO,Testemunha,1,2,1
C2194195170204185000,4/2/2017,"Sábado, 4 de Fevereiro de 2017",2017-02-04,14,AC,ACRE,364 ,122,-10.011899,-67.772599,461,ROUBO A CAMINHÃO,ROUBO,RIO BRANCO,Vítima,1,1,1
C2194778170112083800,11/1/2017,"Quarta-feira, 11 de Janeiro de 2017",2017-01-11,20,SP,SÃO PAULO,116 ,522,-24.904599,-48.254499,461,ROUBO A CAMINHÃO,ROUBO,CAJATI,Vítima,1,1,2
C2195264170227033400,27/2/2017,"Segunda-feira, 27 de Fevereiro de 2017",2017-02-27,2,GO,GOIÁS,364 ,197,-17.920299,-51.731799,461,ROUBO A CAMINHÃO,ROUBO,JATAI,Vítima,1,1,2
C2195613170304021300,4/3/2017,"Sábado, 4 de Março de 2017",2017-03-04,2,SP,SÃO PAULO,116 ,406,-24.324699,-47.555499,461,ROUBO A CAMINHÃO,ROUBO,JUQUIA,Vítima,1,1,1
C2195678170218232900,18/2/2017,"Sábado, 18 de Fevereiro de 2017",2017-02-18,23,SP,SÃO PAULO,116 ,513,-24.854799,-48.211199,461,ROUBO A CAMINHÃO,ROUBO,CAJATI,Vítima,1,1,2
C2196292170331040600,31/3/2017,"Sexta-feira, 31 de Março de 2017",2017-03-31,3,RJ,RIO DE JANEIRO,116 ,257,-22.591899,-44.067399,461,ROUBO A CAMINHÃO,ROUBO,VOLTA REDONDA,Vítima,1,2,1
C2196601170127132900,27/1/2017,"Sexta-feira, 27 de Janeiro de 2017",2017-01-27,0,GO,GOIÁS,364 ,235,-17.801699,-52.046099,461,ROUBO A CAMINHÃO,ROUBO,MINEIROS,Vítima,1,1,3
C2256379170226123800,23/2/2017,"Quinta-feira, 23 de Fevereiro de 2017",2017-02-23,23,GO,GOIÁS,364 ,310,-17.475199,-52.570799,461,ROUBO A CAMINHÃO,ROUBO,MINEIROS,Vítima,1,1,3
C2259013170214193800,14/2/2017,"Terça-feira, 14 de Fevereiro de 2017",2017-02-14,14,PE,PERNAMBUCO,232 ,547,-8.088299,-39.436599,461,ROUBO A CAMINHÃO,ROUBO,TERRA NOVA,Vítima,1,1,1
C2259817170118082300,18/1/2017,"Quarta-feira, 18 de Janeiro de 2017",2017-01-18,8,GO,GOIÁS,153 ,47,-13.225099,-49.147299,461,ROUBO A CAMINHÃO,ROUBO,PORANGATU,Vítima,1,1,1
C2259817170409024400,8/4/2017,"Sábado, 8 de Abril de 2017",2017-04-08,8,GO,GOIÁS,153 ,145,-14.037299,-49.088399,461,ROUBO A CAMINHÃO,ROUBO,MARA ROSA,Vítima,1,1,1
C2263385170106061500,6/1/2017,"Sexta-feira, 6 de Janeiro de 2017",2017-01-06,2,NI,Não Informado,NI,-1,-1,-1,461,ROUBO A CAMINHÃO,ROUBO,BARREIRAS,Vítima,1,2,2
C2263788170219121100,19/2/2017,"Domingo, 19 de Fevereiro de 2017",2017-02-19,10,NI,Não Informado,NI,-1,-1,-1,461,ROUBO A CAMINHÃO,ROUBO,ACAILANDIA,Vítima,1,1,1
C2263788170307134300,7/3/2017,"Terça-feira, 7 de Março de 2017",2017-03-07,10,MA,MARANHÃO,010 ,283,-5.257799,-47.508699,461,ROUBO A CAMINHÃO,ROUBO,IMPERATRIZ,Vítima,1,1,1
C2312755170101171200,1/1/2017,"Domingo, 1 de Janeiro de 2017",2017-01-01,8,AL,ALAGOAS,101 ,25,-9.057799,-35.718899,461,ROUBO A CAMINHÃO,ROUBO,JOAQUIM GOMES,Vítima,1,1,1
C2312808170203052000,3/2/2017,"Sexta-feira, 3 de Fevereiro de 2017",2017-02-03,4,RJ,RIO DE JANEIRO,116 ,172,-22.778999,-43.394999,461,ROUBO A CAMINHÃO,ROUBO,RIO DE JANEIRO,Vítima,1,1,3
C2313039170215031900,15/2/2017,"Quarta-feira, 15 de Fevereiro de 2017",2017-02-15,3,PR,PARANÁ,277 ,129,-25.453099,-49.625,461,ROUBO A CAMINHÃO,ROUBO,BALSA NOVA,Vítima,1,1,1
C2313137170325064800,25/3/2017,"Sábado, 25 de Março de 2017",2017-03-25,0,MT,MATO GROSSO,163 ,509,-14.513999,-56.209099,461,ROUBO A CAMINHÃO,ROUBO,DIAMANTINO,Vítima,1,3,2
C2313941170617030800,16/6/2017,"Sexta-feira, 16 de Junho de 2017",2017-06-16,20,NI,Não Informado,NI,-1,-1,-1,461,ROUBO A CAMINHÃO,ROUBO,CRISOPOLIS,Vítima,1,1,4
C2313952170203113500,1/2/2017,"Quarta-feira, 1 de Fevereiro de 2017",2017-02-01,23,NI,Não Informado,NI,-1,-1,-1,461,ROUBO A CAMINHÃO,ROUBO,IBOTIRAMA,Vítima,1,1,1
C2313969170422020100,22/4/2017,"Sábado, 22 de Abril de 2017",2017-04-22,2,NI,Não Informado,NI,-1,-1,-1,461,ROUBO A CAMINHÃO,ROUBO,VARZEA GRANDE,Autor,1,1,1
C2313969170422020100,22/4/2017,"Sábado, 22 de Abril de 2017",2017-04-22,2,NI,Não Informado,NI,-1,-1,-1,461,ROUBO A CAMINHÃO,ROUBO,VARZEA GRANDE,Vítima,1,1,1
C2314312170310082800,9/3/2017,"Quinta-feira, 9 de Março de 2017",2017-03-09,23,PA,PARÁ,010 ,288,-1.912199,-47.520899,461,ROUBO A CAMINHÃO,ROUBO,MAE DO RIO,Vítima,1,1,2
C2314312170521102700,20/5/2017,"Sábado, 20 de Maio de 2017",2017-05-20,14,NI,Não Informado,NI,-1,-1,-1,461,ROUBO A CAMINHÃO,ROUBO,IPIXUNA DO PARA,Vítima,1,1,2
C2315065170604095700,3/6/2017,"Sábado, 3 de Junho de 2017",2017-06-03,18,MA,MARANHÃO,135 ,224,-4.366399,-44.347499,461,ROUBO A CAMINHÃO,ROUBO,CAPINZAL DO NORTE,Vítima,1,1,2
C2316018170428012300,28/4/2017,"Sexta-feira, 28 de Abril de 2017",2017-04-28,0,TO,TOCANTINS,226 ,70,-6.849899,-47.965199,461,ROUBO A CAMINHÃO,ROUBO,WANDERLANDIA,Vítima,1,1,1
C2326604170623105600,22/6/2017,"Quinta-feira, 22 de Junho de 2017",2017-06-22,21,PA,PARÁ,010 ,19,-4.283799,-47.558299,461,ROUBO A CAMINHÃO,ROUBO,DOM ELISEU,Vítima,1,1,1
C2390343170527183600,25/5/2017,"Quinta-feira, 25 de Maio de 2017",2017-05-25,3,GO,GOIÁS,364 ,278,-17.636999,-52.372599,461,ROUBO A CAMINHÃO,ROUBO,MINEIROS,Vítima,1,1,1
